address,lat,long,arcgis_address,score,location.x,location.y,extent.xmin,extent.ymin,extent.xmax,extent.ymax
"207 W 5th St, Wakefield, NE, 68784-5082",42.2667939971512,-96.8675040345953,"207 W 5th St, Wakefield, Nebraska, 68784",100,-96.86750403459531,42.26679399715121,-96.86850403459532,42.265793997151214,-96.86650403459532,42.26779399715121
"2454 Lafayette Rd Ste 21, Portsmouth, NH, 03801-5619",43.035068010462,-70.784162967831,"2454 Lafayette Rd, Ste 21, Portsmouth, New Hampshire, 03801",100,-70.78416296783097,43.03506801046203,-70.78516296783097,43.03406801046203,-70.78316296783096,43.036068010462024
"4 Robinson Rd, Bow, NH, 03304-3601",43.1463790140796,-71.4958609787262,"4 Robinson Rd, Bow, New Hampshire, 03304",100,-71.49586097872623,43.14637901407963,-71.49686097872623,43.14537901407963,-71.49486097872622,43.147379014079625
"87 Lafayette Rd Ste 3, Hampton Falls, NH, 03844-2300",42.9158359826151,-70.8634970108343,"87 Lafayette Rd, Ste 3, Hampton Falls, New Hampshire, 03844",100,-70.86349701083428,42.91583598261505,-70.86449701083428,42.91483598261505,-70.86249701083428,42.91683598261505
"23 MAMMOTH RD, WINDHAM, NH, 03087-1773",42.7995120141653,-71.3514060021152,"23 Mammoth Rd, Windham, New Hampshire, 03087",100,-71.35140600211518,42.79951201416529,-71.35240600211519,42.79851201416529,-71.35040600211518,42.800512014165285
"6 Mary E Clark Dr Ste 11, Hampstead, NH, 03841-2288",42.8618530057659,-71.1766230367015,"6 Mary E Clark Dr, Ste 11, Hampstead, New Hampshire, 03841",100,-71.17662303670153,42.86185300576588,-71.17762303670153,42.86085300576588,-71.17562303670152,42.86285300576588
"890 Lafayatte Road, Seabrook, NH, 03874",42.9018060178039,-70.8686409848131,"890 Lafayette Rd, Seabrook, New Hampshire, 03874",97.88,-70.86864098481306,42.901806017803864,-70.86964098481306,42.900806017803866,-70.86764098481305,42.90280601780386
"382 Suncook Valley Hwy, Epsom, NH, 03234-4243",43.198771985806,-71.3847870153304,"382 Suncook Valley Hwy, Epsom, New Hampshire, 03234",100,-71.38478701533042,43.19877198580596,-71.38578701533042,43.19777198580597,-71.38378701533041,43.19977198580596
"25 SOUTH MAIN ST, HANOVER, NH, 03755-2048",43.7018252971041,-72.2894424564862,"25 S Main St, Hanover, New Hampshire, 03755",100,-72.28944245648617,43.70182529710412,-72.29044245648618,43.70082529710413,-72.28844245648617,43.70282529710412
"118 Main St, Newmarket, NH, 03857-1622",43.0789599344925,-70.9363960275683,"118 Main St, Newmarket, New Hampshire, 03857",100,-70.93639602756826,43.07895993449253,-70.93739602756827,43.07795993449253,-70.93539602756826,43.07995993449253
"151 Congress Street, Portsmouth, NH, 03801",43.0760270185191,-70.760651980881,"151 Congress St, Portsmouth, New Hampshire, 03801",100,-70.76065198088095,43.07602701851914,-70.76165198088096,43.075027018519144,-70.75965198088095,43.07702701851914
"1 Eagle Sq, Concord, NH, 03301-4903",43.2071769811246,-71.5361070220992,"1 Eagle Sq, Concord, New Hampshire, 03301",100,-71.53610702209924,43.20717698112463,-71.53710702209925,43.206176981124635,-71.53510702209924,43.20817698112463
"126 Main Street, MARLBOROUGH, NH, 03455-2126",42.9068407221234,-72.2110902290402,"126 Main St, Marlborough, New Hampshire, 03455",100,-72.21109022904021,42.90684072212341,-72.21209022904021,42.905840722123415,-72.2100902290402,42.90784072212341
"14 PROCTOR HILL ROAD, HOLLIS, NH, 03049-6428",42.7419819835303,-71.5936570016638,"14 Proctor Hill Rd, Hollis, New Hampshire, 03049",100,-71.59365700166377,42.74198198353034,-71.59465700166378,42.74098198353034,-71.59265700166377,42.742981983530335
"41 Observatory Way, Intervale, NH, 03845",44.0992606641814,-71.1581215714407,"Observatory Way, Bartlett, New Hampshire, 03812",94.05,-71.1581215714407,44.09926066418141,-71.1591215714407,44.09826066418141,-71.1571215714407,44.100260664181405
"41 OBSERVATORY WAY, INTERVALE, NH, 03845",44.0992606641814,-71.1581215714407,"Observatory Way, Bartlett, New Hampshire, 03812",94.05,-71.1581215714407,44.09926066418141,-71.1591215714407,44.09826066418141,-71.1571215714407,44.100260664181405
"278 dw hIGHWAY, NASHUA, NH, 03060",42.75568,-71.46464,"03060, Nashua, New Hampshire",84,-71.46463999999997,42.75568000000004,-71.52063999999997,42.69968000000004,-71.40863999999998,42.81168000000004
"931 OCEAN BOULEVARD, HAMPTON, NH, 03842-1425",42.9415519968334,-70.7943530151594,"931 Ocean Blvd, Hampton, New Hampshire, 03842",100,-70.79435301515942,42.941551996833425,-70.79535301515942,42.94055199683343,-70.79335301515941,42.94255199683342
"300 John Stark Highway, SUNAPEE, NH, 03782",43.3711408862305,-72.1595424938665,"300 General John Stark Hwy, Newport, New Hampshire, 03773",90.58,-72.15954249386645,43.37114088623053,-72.16054249386646,43.37014088623053,-72.15854249386645,43.372140886230525
"20 Haywick Drive, Stratham, NH, 03885",42.9805879867545,-70.8843899941465,"20 Haywick Dr, Stratham, New Hampshire, 03885",100,-70.88438999414649,42.98058798675453,-70.8853899941465,42.97958798675453,-70.88338999414648,42.981587986754526
"1708 E Conway Road, CONWAY, NH, 03818",44.0018090205276,-71.0314390021523,"1708 E Conway Rd, Center Conway, New Hampshire, 03813",99.5,-71.03143900215227,44.00180902052756,-71.03243900215227,44.00080902052756,-71.03043900215226,44.00280902052756
"2456 Lafayette Rd Ste 8, Portsmouth, NH, 03801-5624",43.0335430069983,-70.784595976949,"2456 Lafayette Rd, Ste 8, Portsmouth, New Hampshire, 03801",100,-70.78459597694902,43.033543006998286,-70.78559597694903,43.03254300699829,-70.78359597694902,43.03454300699829
"1 Eagle Square, Concord, NH, 03301",43.2071769811246,-71.5361070220992,"1 Eagle Sq, Concord, New Hampshire, 03301",100,-71.53610702209924,43.20717698112463,-71.53710702209925,43.206176981124635,-71.53510702209924,43.20817698112463
"223 N BROADWAY, SALEM, NH, 03079-2129",42.7890720184841,-71.2346780259324,"223 N Broadway, Salem, New Hampshire, 03079",100,-71.23467802593237,42.78907201848415,-71.23567802593237,42.78807201848415,-71.23367802593236,42.790072018484146
"35 High Street, Candia, NH, 03034",43.0620480156793,-71.2875199743023,"35 High St, Candia, New Hampshire, 03034",100,-71.28751997430227,43.06204801567927,-71.28851997430228,43.06104801567927,-71.28651997430227,43.063048015679264
"21 Douglas Dr, New Ipswich, NH, 03071-3727",42.7517300111948,-71.8603699988967,"03071-3727, New Ipswich, New Hampshire",86.5,-71.86036999889667,42.75173001119481,-71.86136999889668,42.75073001119481,-71.85936999889667,42.75273001119481
"14 PROCTOR HILL RD, HOLLIS, NH, 03049",42.7419819835303,-71.5936570016638,"14 Proctor Hill Rd, Hollis, New Hampshire, 03049",100,-71.59365700166377,42.74198198353034,-71.59465700166378,42.74098198353034,-71.59265700166377,42.742981983530335
"364 DW highway, MERRIMACK, NH, 03054",42.83928,-71.4962649999999,"03054, Merrimack, New Hampshire",84,-71.49626499999994,42.83928000000003,-71.57726499999994,42.75828000000003,-71.41526499999993,42.920280000000034
"6 MARY E CLARK DRIVE SUITE 7, HAMPSTEAD, NH, 03841",42.8618530057659,-71.1766230367015,"6 Mary E Clark Dr, Ste 7, Hampstead, New Hampshire, 03841",100,-71.17662303670153,42.86185300576588,-71.17762303670153,42.86085300576588,-71.17562303670152,42.86285300576588
"109 Ponemah Road, Unit 6, AMHERST, NH, 03031-2818",42.8182389879684,-71.6069709843057,"109 Ponemah Rd, Ste 6, Amherst, New Hampshire, 03031",100,-71.6069709843057,42.818238987968414,-71.60797098430571,42.817238987968416,-71.6059709843057,42.81923898796841
"264 Main St, LINCOLN, NH, 03251",44.04951600546459,-71.659520990988,"264 Main St, Lincoln, New Hampshire, 03251",100,-71.65952099098801,44.04951600546459,-71.66052099098802,44.0485160054646,-71.65852099098801,44.050516005464594
"19 Proctor Hill Road, HOLLIS, NH, 03049-6437",42.7425511123014,-71.5962775874257,"19 Proctor Hill Rd, Hollis, New Hampshire, 03049",100,-71.59627758742572,42.74255111230142,-71.59727758742572,42.74155111230142,-71.59527758742571,42.74355111230142
"40 Webster St, Manchester, NH, 03104-2544",43.0066930050993,-71.4635220037138,"40 Webster St, Manchester, New Hampshire, 03104",100,-71.46352200371378,43.006693005099294,-71.46452200371378,43.005693005099296,-71.46252200371377,43.00769300509929
"40 Webster Street, Manchester, NH, 03104",43.0066930050993,-71.4635220037138,"40 Webster St, Manchester, New Hampshire, 03104",100,-71.46352200371378,43.006693005099294,-71.46452200371378,43.005693005099296,-71.46252200371377,43.00769300509929
"21 Douglas Drive, New Ipswich, NH, 03071",42.758425,-71.852085,"03071, New Ipswich, New Hampshire",84,-71.85208499999999,42.758425000000045,-71.94408499999999,42.666425000000046,-71.76008499999999,42.85042500000005
"526 HOMESTEAD HWY, SWANZEY, NH, 03446",42.8491073215496,-72.3280517505167,"526 Homestead Ave, Swanzey, New Hampshire, 03446",96.94,-72.32805175051666,42.8491073215496,-72.32905175051667,42.848107321549605,-72.32705175051666,42.8501073215496
"23 S MAIN ST SUITE 3B, HANOVER, NH, 03755-2075",43.7018703077432,-72.2894392491412,"23 S Main St, Hanover, New Hampshire, 03755",100,-72.28943924914124,43.70187030774322,-72.29043924914124,43.70087030774322,-72.28843924914123,43.70287030774322
"118 Main St, NEWMARKET, NH, 03857-1622",43.0789599344925,-70.9363960275683,"118 Main St, Newmarket, New Hampshire, 03857",100,-70.93639602756826,43.07895993449253,-70.93739602756827,43.07795993449253,-70.93539602756826,43.07995993449253
"109 Ponemah Road Unit A, Amherst, NH, 03031",42.8182389879684,-71.6069709843057,"109 Ponemah Rd, Apt A, Amherst, New Hampshire, 03031",100,-71.6069709843057,42.818238987968414,-71.60797098430571,42.817238987968416,-71.6059709843057,42.81923898796841
"52 Depot Street, SUNAPEE, NH, 03782-0782",43.3694189849167,-72.122968990413,"52 Depot Rd, Sunapee, New Hampshire, 03782",98.04,-72.12296899041299,43.369418984916734,-72.12396899041299,43.36841898491674,-72.12196899041298,43.37041898491673
"40 Rte 41, WEST OSSIPEE, NH, 03890",43.8250319380265,-71.2049509169814,"40 RT-41, West Ossipee, New Hampshire, 03890",100,-71.20495091698143,43.82503193802647,-71.20595091698144,43.82403193802647,-71.20395091698143,43.82603193802647
"1 Route 11, Sunapee, NH, 03782",43.3740649900278,-72.1260820292523,"1 Route 11, Sunapee, New Hampshire, 03782",100,-72.12608202925234,43.37406499002785,-72.12708202925235,43.37306499002785,-72.12508202925234,43.375064990027845
"19 Sonja Dr, Rindge, NH, 03461-5644",42.7422699611502,-72.0367518570836,"19 Sonja Dr, Rindge, New Hampshire, 03461",100,-72.03675185708363,42.74226996115021,-72.03775185708363,42.74126996115021,-72.03575185708362,42.743269961150204
"6 CLUBHOUSE LN, GRANTHAM, NH, 03753-5430",43.4985960151528,-72.1181000266774,"6 Clubhouse Ln, Grantham, New Hampshire, 03753",100,-72.11810002667741,43.4985960151528,-72.11910002667742,43.4975960151528,-72.1171000266774,43.4995960151528
"170 Copperline Dr, Epsom, NH, 03234",43.2026890167979,-71.3986009784968,"170 Copperline Dr, Epsom, New Hampshire, 03234",100,-71.39860097849676,43.202689016797905,-71.39960097849676,43.20168901679791,-71.39760097849675,43.2036890167979
"360 Union Ave, LACONIA, NH, 03246-2812",43.5357439813836,-71.4640750416853,"360 Union Ave, Laconia, New Hampshire, 03246",100,-71.46407504168529,43.53574398138363,-71.4650750416853,43.534743981383635,-71.46307504168529,43.53674398138363
"931 Ocean Blvd, Hampton, NH, 03842-1425",42.9415519968334,-70.7943530151594,"931 Ocean Blvd, Hampton, New Hampshire, 03842",100,-70.79435301515942,42.941551996833425,-70.79535301515942,42.94055199683343,-70.79335301515941,42.94255199683342
"70 POWERS ST, MILFORD, NH, 03055-4927",42.8264476141048,-71.637162375144,"70 Powers St, Milford, New Hampshire, 03055",100,-71.63716237514404,42.82644761410483,-71.63816237514405,42.82544761410483,-71.63616237514404,42.82744761410483
"70 Powers St, Milford, NH, 03055-4927",42.8264476141048,-71.637162375144,"70 Powers St, Milford, New Hampshire, 03055",100,-71.63716237514404,42.82644761410483,-71.63816237514405,42.82544761410483,-71.63616237514404,42.82744761410483
"32 AMESBURY RD, NEWTON, NH, 03858-3202",42.8742916727392,-71.0160899984172,"32 Amesbury Rd, Newton, New Hampshire, 03858",100,-71.01608999841719,42.87429167273919,-71.01708999841719,42.87329167273919,-71.01508999841718,42.87529167273919
"264 MAIN ST, LINCOLN, NH, 03251",44.04951600546459,-71.659520990988,"264 Main St, Lincoln, New Hampshire, 03251",100,-71.65952099098801,44.04951600546459,-71.66052099098802,44.0485160054646,-71.65852099098801,44.050516005464594
"65 Dartmouth College Hwy, Lyme, NH, 03768-3233",43.7746580195495,-72.1833480299373,"65 Dartmouth College Hwy, Lyme, New Hampshire, 03768",100,-72.18334802993729,43.77465801954952,-72.1843480299373,43.77365801954952,-72.18234802993729,43.77565801954952
"32 South Main St, HANOVER, NH, 03755-2015",43.7014700070496,-72.2890699805175,"32 S Main St, Hanover, New Hampshire, 03755",100,-72.28906998051752,43.70147000704961,-72.29006998051753,43.70047000704961,-72.28806998051752,43.702470007049605
"65 DARTMOUTH COLLEGE HWY, LYME, NH, 03768-3233",43.7746580195495,-72.1833480299373,"65 Dartmouth College Hwy, Lyme, New Hampshire, 03768",100,-72.18334802993729,43.77465801954952,-72.1843480299373,43.77365801954952,-72.18234802993729,43.77565801954952
"93 GROVE ST, PETERBOROUGH, NH, 03458-1427",42.871083995733,-71.9514630138648,"93 Grove St, Peterborough, New Hampshire, 03458",100,-71.95146301386481,42.87108399573299,-71.95246301386481,42.87008399573299,-71.9504630138648,42.872083995732986
"78 JOHNSON RD, EAST HAMPSTEAD, NH, 03826-8204",42.8972540157369,-71.1033630236533,"78 Johnson Rd, East Hampstead, New Hampshire, 03826",100,-71.10336302365333,42.89725401573688,-71.10436302365333,42.89625401573688,-71.10236302365333,42.898254015736875
"23 S MAIN ST STE 3A, HANOVER, NH, 03755-2048",43.7018703077432,-72.2894392491412,"23 S Main St, Hanover, New Hampshire, 03755",100,-72.28943924914124,43.70187030774322,-72.29043924914124,43.70087030774322,-72.28843924914123,43.70287030774322
"259 MAIN ST, EAST HAMPSTEAD, NH, 03826-2429",42.8906557366605,-71.1391662464766,"259 E Main St, East Hampstead, New Hampshire, 03826",99.88,-71.13916624647665,42.89065573666055,-71.14016624647665,42.88965573666055,-71.13816624647664,42.891655736660546
"23 S Main St Ste 3C, Hanover, NH, 03755-2075",43.7018703077432,-72.2894392491412,"23 S Main St, Hanover, New Hampshire, 03755",100,-72.28943924914124,43.70187030774322,-72.29043924914124,43.70087030774322,-72.28843924914123,43.70287030774322
"67 TRESCOTT ROAD, HANOVER, NH, 03755",43.7059699994074,-72.2336490043596,"67 Trescott Rd, Etna, New Hampshire, 03750",99.49,-72.23364900435956,43.705969999407415,-72.23464900435957,43.70496999940742,-72.23264900435956,43.70696999940741
"93 Grove St, Peterborough, NH, 03458-1427",42.871083995733,-71.9514630138648,"93 Grove St, Peterborough, New Hampshire, 03458",100,-71.95146301386481,42.87108399573299,-71.95246301386481,42.87008399573299,-71.9504630138648,42.872083995732986
"9 Triangle Park Dr, Concord, NH, 03301-5790",43.2172920104197,-71.4845820383563,"9 Triangle Park Dr, Concord, New Hampshire, 03301",100,-71.48458203835627,43.21729201041967,-71.48558203835627,43.21629201041967,-71.48358203835626,43.21829201041967
"46 John Stark Hwy, NEWPORT, NH, 03773-1811",43.3582124626181,-72.1772587103785,"46 John Stark Hwy, Newport, New Hampshire, 03773",100,-72.1772587103785,43.35821246261808,-72.1782587103785,43.35721246261809,-72.17625871037849,43.35921246261808
"13 Town West Rd, Plymouth, NH, 03264-3428",43.7707409885576,-71.7269480376164,"13 Town West Rd, Plymouth, New Hampshire, 03264",100,-71.72694803761642,43.77074098855758,-71.72794803761643,43.76974098855758,-71.72594803761642,43.771740988557575
"264 Main Street, LINCOLN, NH, 03251",44.04951600546459,-71.659520990988,"264 Main St, Lincoln, New Hampshire, 03251",100,-71.65952099098801,44.04951600546459,-71.66052099098802,44.0485160054646,-71.65852099098801,44.050516005464594
"44 Market St, Somersworth, NH, 03878-2711",43.2641552817047,-70.8639312186553,"44 Market St, Somersworth, New Hampshire, 03878",100,-70.86393121865531,43.264155281704696,-70.86493121865531,43.2631552817047,-70.8629312186553,43.26515528170469
"984 White Mountain Highway, North Conway, NH, 03860",44.0053059924419,-71.114319009294,"984 White Mountain Hwy, North Conway, New Hampshire, 03860",100,-71.11431900929395,44.00530599244186,-71.11531900929396,44.004305992441864,-71.11331900929395,44.00630599244186
"728 RIVER RD, NEW BOSTON, NH, 03070-4904",43.0159452955466,-71.6365326356408,"728 River Rd, New Boston, New Hampshire, 03070",100,-71.6365326356408,43.01594529554656,-71.63753263564081,43.01494529554656,-71.6355326356408,43.01694529554656
"273 Mast Road, MANCHESTER, NH, 03102-3813",42.9840590458036,-71.4889050953512,"273 Mast Rd, Manchester, New Hampshire, 03102",100,-71.48890509535116,42.98405904580364,-71.48990509535116,42.98305904580364,-71.48790509535115,42.98505904580364
"13 TOWN WEST RD, PLYMOUTH, NH, 03264-3428",43.7707409885576,-71.7269480376164,"13 Town West Rd, Plymouth, New Hampshire, 03264",100,-71.72694803761642,43.77074098855758,-71.72794803761643,43.76974098855758,-71.72594803761642,43.771740988557575
"211 Loudon Rd, Concord, NH, 03301-6099",43.2206560034401,-71.4982909762758,"211 Loudon Rd, Concord, New Hampshire, 03301",100,-71.49829097627583,43.2206560034401,-71.49929097627583,43.2196560034401,-71.49729097627582,43.221656003440096
"2456 Lafayette Rd Ste 7, Portsmouth, NH, 03801-5624",43.0335430069983,-70.784595976949,"2456 Lafayette Rd, Ste 7, Portsmouth, New Hampshire, 03801",100,-70.78459597694902,43.033543006998286,-70.78559597694903,43.03254300699829,-70.78359597694902,43.03454300699829
"23 S MAIN STe 3A, HANOVER, NH, 03755-2075",43.7018703077432,-72.2894392491412,"23 S Main St, Hanover, New Hampshire, 03755",98.84,-72.28943924914124,43.70187030774322,-72.29043924914124,43.70087030774322,-72.28843924914123,43.70287030774322
"310 DW Highway, NASHUA, NH, 03060-5704",42.7028799861217,-71.4409000014145,"03060-5704, Nashua, New Hampshire",86.5,-71.44090000141453,42.70287998612173,-71.44190000141454,42.70187998612173,-71.43990000141453,42.70387998612173
"264 Main St, Lincoln, NH, 03251",44.04951600546459,-71.659520990988,"264 Main St, Lincoln, New Hampshire, 03251",100,-71.65952099098801,44.04951600546459,-71.66052099098802,44.0485160054646,-71.65852099098801,44.050516005464594
"3 ICE HOUSE PLAZA, NEWPORT, NH, 03773-5412",43.3778196930793,-72.1545763065709,"3 Ice House Plz, Newport, New Hampshire, 03773",100,-72.15457630657089,43.37781969307929,-72.1555763065709,43.37681969307929,-72.15357630657088,43.378819693079286
"87 LAFAYETTE RD, HAMPTON FALLS, NH, 03844-2300",42.9158359826151,-70.8634970108343,"87 Lafayette Rd, Hampton Falls, New Hampshire, 03844",100,-70.86349701083428,42.91583598261505,-70.86449701083428,42.91483598261505,-70.86249701083428,42.91683598261505
"227 Main Street, Lincoln, NH, 03251",44.0485320119413,-71.6635240203065,"227 Main St, Lincoln, New Hampshire, 03251",100,-71.66352402030654,44.04853201194132,-71.66452402030654,44.04753201194132,-71.66252402030653,44.04953201194132
"227 MAIN ST, LINCOLN, NH, 03251",44.0485320119413,-71.6635240203065,"227 Main St, Lincoln, New Hampshire, 03251",100,-71.66352402030654,44.04853201194132,-71.66452402030654,44.04753201194132,-71.66252402030653,44.04953201194132
"211 LOUDON RD, CONCORD, NH, 03301",43.2206560034401,-71.4982909762758,"211 Loudon Rd, Concord, New Hampshire, 03301",100,-71.49829097627583,43.2206560034401,-71.49929097627583,43.2196560034401,-71.49729097627582,43.221656003440096
"931 OCEAN BLVD, HAMPTON, NH, 03842-1425",42.9415519968334,-70.7943530151594,"931 Ocean Blvd, Hampton, New Hampshire, 03842",100,-70.79435301515942,42.941551996833425,-70.79535301515942,42.94055199683343,-70.79335301515941,42.94255199683342
"992 Laconia Road, SANBORNTON, NH, 03269",43.5025570092269,-71.5165429895355,"992 Laconia Rd, Tilton, New Hampshire, 03276",99.49,-71.51654298953551,43.502557009226905,-71.51754298953551,43.50155700922691,-71.5155429895355,43.5035570092269
"10 Continental Dr # 2, Exeter, NH, 03833-7507",42.9945673302609,-70.9765329466338,"10 Continental Dr, Exeter, New Hampshire, 03833",100,-70.97653294663384,42.9945673302609,-70.97753294663384,42.9935673302609,-70.97553294663383,42.9955673302609
"1294 NH Route 175 Unit 1, Campton, NH, 03223-4807",43.8628210145341,-71.6329900043239,"1294 Nh Route 175, Apt 1, Campton, New Hampshire, 03223",100,-71.63299000432389,43.86282101453412,-71.63399000432389,43.86182101453412,-71.63199000432388,43.86382101453412
"264 MAIN ST, Lincoln, NH, 03251",44.04951600546459,-71.659520990988,"264 Main St, Lincoln, New Hampshire, 03251",100,-71.65952099098801,44.04951600546459,-71.66052099098802,44.0485160054646,-71.65852099098801,44.050516005464594
"44 Market St, SOMERSWORTH, NH, 03878",43.2641552817047,-70.8639312186553,"44 Market St, Somersworth, New Hampshire, 03878",100,-70.86393121865531,43.264155281704696,-70.86493121865531,43.2631552817047,-70.8629312186553,43.26515528170469
"30 Bridge St, Lancaster, NH, 03584",44.496525133032,-71.5809149608937,"30 Bridge St, Lancaster, New Hampshire, 03584",100,-71.58091496089368,44.49652513303195,-71.58191496089368,44.495525133031954,-71.57991496089367,44.49752513303195
"#8 Interchange Drive, WEST LEBANON, NH, 03784-2003",43.6283350469842,-72.3208005401905,"8 Interchange Dr, West Lebanon, New Hampshire, 03784",100,-72.32080054019049,43.628335046984205,-72.3218005401905,43.62733504698421,-72.31980054019049,43.6293350469842
"8 Interchange Dr, West Lebanon, NH, 03784-2003",43.6283350469842,-72.3208005401905,"8 Interchange Dr, West Lebanon, New Hampshire, 03784",100,-72.32080054019049,43.628335046984205,-72.3218005401905,43.62733504698421,-72.31980054019049,43.6293350469842
"146 CONGRESS ST, PORTSMOUTH, NH, 03801-4019",43.0758918166465,-70.7602167163225,"146 Congress St, Portsmouth, New Hampshire, 03801",100,-70.76021671632247,43.07589181664651,-70.76121671632248,43.07489181664651,-70.75921671632247,43.07689181664651
"1451 1ST NH TPKE, NORTHWOOD, NH, 03261",43.2229483354035,-71.2583145184099,"1451 1st NH Tpke, Northwood, New Hampshire, 03261",100,-71.25831451840986,43.22294833540354,-71.25931451840987,43.22194833540354,-71.25731451840986,43.223948335403534
"26 GONET DR, NEWMARKET, NH, 03857-1746",43.083757983094,-70.9184620114595,"26 Gonet Dr, Newmarket, New Hampshire, 03857",100,-70.9184620114595,43.08375798309396,-70.9194620114595,43.08275798309396,-70.91746201145949,43.08475798309396
"1024 SUNCOOK VALLEY HWY C3, Epsom, NH, 03234",43.2351160017937,-71.3604410231861,"1024 Suncook Valley Hwy, Unit C3, Epsom, New Hampshire, 03234",100,-71.36044102318606,43.2351160017937,-71.36144102318606,43.2341160017937,-71.35944102318605,43.2361160017937
"2456 LAFAYETTE RD STE 13, PORTSMOUTH, NH, 03801-5624",43.0335430069983,-70.784595976949,"2456 Lafayette Rd, Ste 13, Portsmouth, New Hampshire, 03801",100,-70.78459597694902,43.033543006998286,-70.78559597694903,43.03254300699829,-70.78359597694902,43.03454300699829
"109 Ponemah Road Unit  2, Amherst, NH, 03031",42.8182389879684,-71.6069709843057,"109 Ponemah Rd, Ste 2, Amherst, New Hampshire, 03031",100,-71.6069709843057,42.818238987968414,-71.60797098430571,42.817238987968416,-71.6059709843057,42.81923898796841
"139 Lafayette Rd, Rye, NH, 03870-6103",43.0105562278412,-70.8050050685576,"139 Lafayette Rd, Rye, New Hampshire, 03870",100,-70.80500506855763,43.01055622784117,-70.80600506855764,43.00955622784117,-70.80400506855763,43.01155622784117
"139 Lafayette Road, Rye, NH, 03870",43.0105562278412,-70.8050050685576,"139 Lafayette Rd, Rye, New Hampshire, 03870",100,-70.80500506855763,43.01055622784117,-70.80600506855764,43.00955622784117,-70.80400506855763,43.01155622784117
"78 Johnson Rd, East Hampstead, NH, 03826-8204",42.8972540157369,-71.1033630236533,"78 Johnson Rd, East Hampstead, New Hampshire, 03826",100,-71.10336302365333,42.89725401573688,-71.10436302365333,42.89625401573688,-71.10236302365333,42.898254015736875
"87 Lafayette Rd, Hampton Falls, NH, 03844-2317",42.9158359826151,-70.8634970108343,"87 Lafayette Rd, Hampton Falls, New Hampshire, 03844",100,-70.86349701083428,42.91583598261505,-70.86449701083428,42.91483598261505,-70.86249701083428,42.91683598261505
"59 HODGEMAN HILL RD, CAMPTON, NH, 03223-5125",43.8703340077169,-71.6145260127329,"59 Hodgeman Hill Rd, Campton, New Hampshire, 03223",100,-71.6145260127329,43.870334007716906,-71.6155260127329,43.86933400771691,-71.61352601273289,43.871334007716904
"2454 Lafayette Rd Ste 36, Portsmouth, NH, 03801-5619",43.035068010462,-70.784162967831,"2454 Lafayette Rd, Portsmouth, New Hampshire, 03801",100,-70.78416296783097,43.03506801046203,-70.78516296783097,43.03406801046203,-70.78316296783096,43.036068010462024
"370 Miracle Mile, Lebanon, NH, 03766-2635",43.6368200106718,-72.287674980372,"370 Miracle Mile, Lebanon, New Hampshire, 03766",100,-72.28767498037205,43.636820010671784,-72.28867498037205,43.635820010671786,-72.28667498037204,43.63782001067178
"295 D.W. HIGHWAY, NASHUA, NH, 03060",42.75568,-71.46464,"03060, Nashua, New Hampshire",84,-71.46463999999997,42.75568000000004,-71.52063999999997,42.69968000000004,-71.40863999999998,42.81168000000004
"15 sunny meadow road, atkinson, NH, 03811",42.8184220068242,-71.1744979727895,"15 Sunny Meadow Rd, Atkinson, New Hampshire, 03811",100,-71.17449797278945,42.81842200682425,-71.17549797278946,42.81742200682425,-71.17349797278945,42.81942200682425
"19 Proctor Hill Rd, Hollis, NH, 03049-6437",42.7425511123014,-71.5962775874257,"19 Proctor Hill Rd, Hollis, New Hampshire, 03049",100,-71.59627758742572,42.74255111230142,-71.59727758742572,42.74155111230142,-71.59527758742571,42.74355111230142
"109 PONEMAH RD SUITE 5, AMHERST, NH, 03031-2818",42.8182389879684,-71.6069709843057,"109 Ponemah Rd, Ste 5, Amherst, New Hampshire, 03031",100,-71.6069709843057,42.818238987968414,-71.60797098430571,42.817238987968416,-71.6059709843057,42.81923898796841
"85 Allenstown Rd, Allenstown, NH, 03275-1827",43.1280003349722,-71.444811599913,"85 Allenstown Rd, Suncook, New Hampshire, 03275",100,-71.44481159991304,43.12800033497221,-71.44581159991304,43.12700033497221,-71.44381159991303,43.12900033497221
"135 N Broadway, Salem, NH, 03079",42.7858220193469,-71.2329920061086,"135 N Broadway, Salem, New Hampshire, 03079",100,-71.23299200610863,42.78582201934691,-71.23399200610864,42.78482201934691,-71.23199200610863,42.78682201934691
"63 Church St, Spofford, NH, 03462",42.906617020679,-72.4196590261625,"63 Church St, Spofford, New Hampshire, 03462",100,-72.41965902616253,42.90661702067899,-72.42065902616254,42.90561702067899,-72.41865902616253,42.90761702067899
"10 Continental Drive, #2, Exeter, NH, 03833-7507",42.9945673302609,-70.9765329466338,"10 Continental Dr, Exeter, New Hampshire, 03833",100,-70.97653294663384,42.9945673302609,-70.97753294663384,42.9935673302609,-70.97553294663383,42.9955673302609
"87 LAFAYETTE ROAD, HAMPTON FALLS, NH, 03844",42.9158359826151,-70.8634970108343,"87 Lafayette Rd, Hampton Falls, New Hampshire, 03844",100,-70.86349701083428,42.91583598261505,-70.86449701083428,42.91483598261505,-70.86249701083428,42.91683598261505
"1451 1st NH Tpke, Northwood, NH, 03261-3217",43.2229483354035,-71.2583145184099,"1451 1st NH Tpke, Northwood, New Hampshire, 03261",100,-71.25831451840986,43.22294833540354,-71.25931451840987,43.22194833540354,-71.25731451840986,43.223948335403534
"15 Cooper Ln Apt 312, Bedford, NH, 03110-5988",42.9601044585279,-71.5068658823535,"15 Cooper Ln, Bedford, New Hampshire, 03110",100,-71.5068658823535,42.96010445852789,-71.5078658823535,42.95910445852789,-71.50586588235349,42.961104458527885
"3 Proctor Hill Rd, Hollis, NH, 03049",42.74273588986621,-71.5943955854506,"3 Proctor Hill Rd, Hollis, New Hampshire, 03049",100,-71.59439558545058,42.74273588986621,-71.59539558545059,42.741735889866206,-71.59339558545058,42.7437358898662
"1294 NH Rt 175 Unit 2, Campton, NH, 03223",43.8628210145341,-71.6329900043239,"1294 Nh Route 175, Apt 2, Campton, New Hampshire, 03223",100,-71.63299000432389,43.86282101453412,-71.63399000432389,43.86182101453412,-71.63199000432388,43.86382101453412
"15 COOPER LN Unit # 309, BEDFORD, NH, 03110-5967",42.9601044585279,-71.5068658823535,"15 Cooper Ln, Bedford, New Hampshire, 03110",98,-71.5068658823535,42.96010445852789,-71.5078658823535,42.95910445852789,-71.50586588235349,42.961104458527885
"6 Mary E Clark Dr, Hampstead, NH, 03841-2288",42.8618530057659,-71.1766230367015,"6 Mary E Clark Dr, Hampstead, New Hampshire, 03841",100,-71.17662303670153,42.86185300576588,-71.17762303670153,42.86085300576588,-71.17562303670152,42.86285300576588
"211 Loudon Road Suite G, Concord, NH, 03301",43.2206560034401,-71.4982909762758,"211 Loudon Rd, Ste G, Concord, New Hampshire, 03301",100,-71.49829097627583,43.2206560034401,-71.49929097627583,43.2196560034401,-71.49729097627582,43.221656003440096
"56 Ski Lift Ln, Plymouth, NH, 03264",43.7426280014881,-71.6833789887295,"56 Ski Lift Ln, Plymouth, New Hampshire, 03264",100,-71.6833789887295,43.7426280014881,-71.6843789887295,43.7416280014881,-71.6823789887295,43.7436280014881
"16 Ham Rd, Epping, NH, 03042-3015",43.0406379946697,-71.1406449746064,"16 Ham Rd, Epping, New Hampshire, 03042",100,-71.14064497460642,43.04063799466968,-71.14164497460642,43.03963799466968,-71.13964497460641,43.04163799466968
"19 Proctor Hill Rd, HOLLIS, NH, 03049",42.7425511123014,-71.5962775874257,"19 Proctor Hill Rd, Hollis, New Hampshire, 03049",100,-71.59627758742572,42.74255111230142,-71.59727758742572,42.74155111230142,-71.59527758742571,42.74355111230142
"32 Main Street, Center Sandwich, NH, 03227",43.8057009823309,-71.4369455634294,"32 Main St, Center Sandwich, New Hampshire, 03227",100,-71.43694556342943,43.8057009823309,-71.43794556342944,43.8047009823309,-71.43594556342943,43.806700982330895
"10 1 2 Chester Street, Nashua, NH, 03064",42.7701929969574,-71.4639169589914,"10 1/2 Chester St, Nashua, New Hampshire, 03064",100,-71.4639169589914,42.770192996957434,-71.46491695899141,42.76919299695744,-71.4629169589914,42.77119299695743
"109 Ponemah Road 8, Amherst, NH, 03031",42.8182389879684,-71.6069709843057,"109 Ponemah Rd, Ste 8, Amherst, New Hampshire, 03031",100,-71.6069709843057,42.818238987968414,-71.60797098430571,42.817238987968416,-71.6059709843057,42.81923898796841
"15 MAIN ST, WOLFEBORO, NH, 03894",43.5843080159204,-71.2126659747272,"15 S Main St, Wolfeboro, New Hampshire, 03894",99.55,-71.21266597472722,43.58430801592036,-71.21366597472722,43.58330801592036,-71.21166597472721,43.585308015920354
"295 D.W. Highway A9, nashua, NH, 03060",42.75568,-71.46464,"03060, Nashua, New Hampshire",84,-71.46463999999997,42.75568000000004,-71.52063999999997,42.69968000000004,-71.40863999999998,42.81168000000004
"307 Main Street, Tilton, NH, 03276",43.4435539848374,-71.59197098184,"307 Main St, Tilton, New Hampshire, 03276",100,-71.59197098184003,43.44355398483739,-71.59297098184004,43.44255398483739,-71.59097098184003,43.44455398483739
"6 MARY E CLARK DR, HAMPSTEAD, NH, 03841",42.8618530057659,-71.1766230367015,"6 Mary E Clark Dr, Hampstead, New Hampshire, 03841",100,-71.17662303670153,42.86185300576588,-71.17762303670153,42.86085300576588,-71.17562303670152,42.86285300576588
"12 MacGregor Court Unit 403, Londonderry, NH, 03053",42.8968110715192,-71.3803891365496,"12 MacGregor Ct, Londonderry, New Hampshire, 03053",100,-71.38038913654962,42.89681107151916,-71.38138913654963,42.89581107151916,-71.37938913654962,42.89781107151916
"240 NORTH BROADWAY, SALEM, NH, 03079-2157",42.7918269824198,-71.2351009767666,"240 N Broadway, Salem, New Hampshire, 03079",100,-71.2351009767666,42.79182698241985,-71.23610097676661,42.79082698241985,-71.2341009767666,42.79282698241985
"32 Main St, CENTER SANDWICH, NH, 03227",43.8057009823309,-71.4369455634294,"32 Main St, Center Sandwich, New Hampshire, 03227",100,-71.43694556342943,43.8057009823309,-71.43794556342944,43.8047009823309,-71.43594556342943,43.806700982330895
"26 Piermont Hts. Rd, Oxford, NH, 03777",43.9149329829565,-72.0029320064946,"26 Piermont Heights Rd, Orford, New Hampshire, 03777",98.14,-72.00293200649458,43.914932982956486,-72.00393200649458,43.91393298295649,-72.00193200649457,43.91593298295648
"26 Piermont Heights Rd, Orford, NH, 03777-4412",43.9149329829565,-72.0029320064946,"26 Piermont Heights Rd, Orford, New Hampshire, 03777",100,-72.00293200649458,43.914932982956486,-72.00393200649458,43.91393298295649,-72.00193200649457,43.91593298295648
"85 Allenstown Road Suite 3, Allenstown, NH, 03275",43.1280003349722,-71.444811599913,"85 Allenstown Rd, Suncook, New Hampshire, 03275",100,-71.44481159991304,43.12800033497221,-71.44581159991304,43.12700033497221,-71.44381159991303,43.12900033497221
"45 Eaton Rd, Swanzey, NH, 03446-3611",42.8806319892782,-72.2886010130349,"45 Eaton Rd, Swanzey, New Hampshire, 03446",100,-72.28860101303486,42.880631989278186,-72.28960101303487,42.87963198927819,-72.28760101303486,42.88163198927818
"566 Mast Road, Goffstown, NH, 03045",42.9993639946912,-71.5165780258908,"566 Mast Rd, Goffstown, New Hampshire, 03045",100,-71.51657802589078,42.99936399469124,-71.51757802589078,42.99836399469124,-71.51557802589078,43.000363994691234
"51 Adams Park, Rye, NH, 03870-6135",43.0111185004688,-70.8034975385101,"51 Adams Park, Rye, New Hampshire, 03870",100,-70.80349753851009,43.01111850046883,-70.80449753851009,43.010118500468835,-70.80249753851008,43.01211850046883
"1053 NH Route 123A, ALSTEAD, NH, 03602",43.1240528291135,-72.2779541434136,"1053 NH Route 123, Alstead, New Hampshire, 03602",97.66,-72.27795414341362,43.124052829113495,-72.27895414341363,43.1230528291135,-72.27695414341362,43.12505282911349
"8 Shoreline Dr, Unit 2, BOSCAWEN, NH, 03303-3516",43.3319496075184,-71.6145866236096,"Shoreline Dr, Canterbury, New Hampshire, 03224",90.54,-71.61458662360963,43.331949607518375,-71.61558662360963,43.33094960751838,-71.61358662360962,43.33294960751837
"454 DW Highway Suite D, MERRIMACK, NH, 03054",42.83928,-71.4962649999999,"03054, Merrimack, New Hampshire",84,-71.49626499999994,42.83928000000003,-71.57726499999994,42.75828000000003,-71.41526499999993,42.920280000000034
"17 South Mast St., Goffstown, NH, 03045",43.0153623835363,-71.5958699278687,"17 S Mast St, Goffstown, New Hampshire, 03045",100,-71.5958699278687,43.015362383536285,-71.59686992786871,43.01436238353629,-71.5948699278687,43.01636238353628
"1 HIGH STREET 1 HIGH STREET, HAMPTON, NH, 03842",42.9417591015737,-70.8378547666798,"1 High St, Hampton, New Hampshire, 03842",96.94,-70.83785476667984,42.94175910157365,-70.83885476667984,42.940759101573654,-70.83685476667983,42.94275910157365
"566 Mast Rd, Goffstown, NH, 03045-5253",42.9993639946912,-71.5165780258908,"566 Mast Rd, Goffstown, New Hampshire, 03045",100,-71.51657802589078,42.99936399469124,-71.51757802589078,42.99836399469124,-71.51557802589078,43.000363994691234
"234 MAY ST, ENFIELD, NH, 03748-3025",43.6630210018079,-72.1407790259182,"234 May St, Canaan, New Hampshire, 03741",97.13,-72.14077902591823,43.66302100180789,-72.14177902591824,43.662021001807894,-72.13977902591823,43.66402100180789
"1 Eagle Sq , Concord, NH, 03301-4903",43.2071769811246,-71.5361070220992,"1 Eagle Sq, Concord, New Hampshire, 03301",100,-71.53610702209924,43.20717698112463,-71.53710702209925,43.206176981124635,-71.53510702209924,43.20817698112463
"566 MAST RD, GOFFSTOWN, NH, 03045",42.9993639946912,-71.5165780258908,"566 Mast Rd, Goffstown, New Hampshire, 03045",100,-71.51657802589078,42.99936399469124,-71.51757802589078,42.99836399469124,-71.51557802589078,43.000363994691234
"264 Main St #8, LINCOLN, NH, 03251",44.04951600546459,-71.659520990988,"264 Main St, Apt 8, Lincoln, New Hampshire, 03251",100,-71.65952099098801,44.04951600546459,-71.66052099098802,44.0485160054646,-71.65852099098801,44.050516005464594
"401 MAIN ST suite 401-9, PETERBOROUGH, NH, 03458-2466",42.9123127950926,-72.1192086825238,"401 Main St, Dublin, New Hampshire, 03444",97.13,-72.11920868252378,42.91231279509261,-72.12020868252378,42.91131279509261,-72.11820868252377,42.91331279509261
"12 DEPOT DR, GREENFIELD, NH, 03047-4309",42.9489670055681,-71.8720810263753,"12 Depot Dr, Greenfield, New Hampshire, 03047",100,-71.87208102637533,42.94896700556808,-71.87308102637533,42.94796700556808,-71.87108102637532,42.94996700556808
"99 1/2 Albany St, Portsmouth, NH, 03801-7903",43.0698112135552,-70.7686946915273,"99 1/2 Albany St, Portsmouth, New Hampshire, 03801",100,-70.76869469152734,43.06981121355519,-70.76969469152735,43.06881121355519,-70.76769469152734,43.07081121355519
"99 1/2 ALBANY ST, PORTSMOUTH, NH, 03801-7903",43.0698112135552,-70.7686946915273,"99 1/2 Albany St, Portsmouth, New Hampshire, 03801",100,-70.76869469152734,43.06981121355519,-70.76969469152735,43.06881121355519,-70.76769469152734,43.07081121355519
"1 Martin Drive Route 12A, West Lebanon, NH, 03784",43.6258849797891,-72.321533007697,"1 Martin Dr, West Lebanon, New Hampshire, 03784",97.89,-72.32153300769698,43.62588497978908,-72.32253300769699,43.62488497978908,-72.32053300769698,43.626884979789075
"4 Vandora Drive, Manchester, NH, 03103",42.8958617277987,-71.4442587923171,"4 Vandora Dr, Manchester, New Hampshire, 03103",100,-71.44425879231707,42.895861727798675,-71.44525879231708,42.89486172779868,-71.44325879231707,42.89686172779867
"1 MARTIN DR, WEST LEBANON, NH, 03784-2044",43.6258849797891,-72.321533007697,"1 Martin Dr, West Lebanon, New Hampshire, 03784",100,-72.32153300769698,43.62588497978908,-72.32253300769699,43.62488497978908,-72.32053300769698,43.626884979789075
"11 GROVE ST, PETERBOROUGH, NH, 03458-1422",42.8771626694674,-71.9506078470964,"11 Grove St, Peterborough, New Hampshire, 03458",100,-71.95060784709635,42.87716266946743,-71.95160784709635,42.87616266946743,-71.94960784709635,42.87816266946743
"37 Wilton Rd, Milford, NH, 03086",42.8414970090806,-71.7216019759521,"37 Wilton Rd, Milford, New Hampshire, 03055",98.99,-71.72160197595208,42.8414970090806,-71.72260197595209,42.8404970090806,-71.72060197595208,42.84249700908059
"8 Grove St, Peterborough, NH, 03458-1423",42.8773052245877,-71.9503859297288,"8 Grove St, Peterborough, New Hampshire, 03458",100,-71.9503859297288,42.87730522458768,-71.9513859297288,42.87630522458768,-71.94938592972879,42.87830522458768
"389 New Castle Ave., Portsmouth, NH, 03801",43.070809455983,-70.7449639539372,"389 New Castle Ave, Portsmouth, New Hampshire, 03801",100,-70.74496395393722,43.070809455983,-70.74596395393722,43.069809455983005,-70.74396395393721,43.071809455983
"1064 1st NH Turnpike Unit 2 Unit 2, Northwood, NH, 03261",43.2202818645614,-71.2245406231209,"1064 1st NH Tpke, Northwood, New Hampshire, 03261",100,-71.22454062312093,43.22028186456137,-71.22554062312093,43.219281864561374,-71.22354062312093,43.22128186456137
"2019 White Mtn Hwy, NORTH CONWAY, NH, 03860",44.034768169401,-71.1214421534627,"2019 White Mountain Hwy, North Conway, New Hampshire, 03860",100,-71.12144215346271,44.03476816940098,-71.12244215346271,44.03376816940098,-71.1204421534627,44.035768169400974
"56 Star Fish Cir, Rye, NH, 03870-2091",43.0282224122348,-70.7399773473669,"56 Starfish Cir, Rye, New Hampshire, 03870",99.5,-70.73997734736695,43.028222412234825,-70.74097734736695,43.02722241223483,-70.73897734736694,43.02922241223482
"56 STAR FISH CIR, RYE, NH, 03870-2091",43.0282224122348,-70.7399773473669,"56 Starfish Cir, Rye, New Hampshire, 03870",99.5,-70.73997734736695,43.028222412234825,-70.74097734736695,43.02722241223483,-70.73897734736694,43.02922241223482
"88 COFFIN RD, EPPING, NH, 03042",43.0486629964079,-71.053603017262,"88 Coffin Rd, Epping, New Hampshire, 03042",100,-71.05360301726199,43.0486629964079,-71.054603017262,43.0476629964079,-71.05260301726199,43.049662996407896
"236 Mast Rd, Goffstown, NH, 03045-2371",43.0118870516512,-71.5478975141047,"236 Mast Rd, Goffstown, New Hampshire, 03045",100,-71.54789751410469,43.01188705165119,-71.5488975141047,43.0108870516512,-71.54689751410469,43.01288705165119
"62 N BROADWAY, SALEM, NH, 03079-2102",42.7839989973158,-71.2303009960942,"62 N Broadway, Salem, New Hampshire, 03079",100,-71.23030099609416,42.78399899731576,-71.23130099609416,42.782998997315765,-71.22930099609415,42.78499899731576
"248 Wilkins Street Ext, Bedford, NH, 03110-5829",42.9823750085115,-71.4956859645879,"248 Wilkins Street Ext, Bedford, New Hampshire, 03110",100,-71.49568596458793,42.982375008511525,-71.49668596458794,42.98137500851153,-71.49468596458793,42.98337500851152
"4 GROVE ST, PETERBOROUGH, NH, 03458-1423",42.877480834465,-71.9503137361926,"4 Grove St, Peterborough, New Hampshire, 03458",100,-71.95031373619258,42.87748083446496,-71.95131373619259,42.87648083446496,-71.94931373619258,42.87848083446496
"46 Monroe Dr, Rochester, NH, 03867-6406",43.2956077860196,-71.0019290977761,"46 Monroe Dr, Rochester, New Hampshire, 03839",99.51,-71.00192909777608,43.29560778601958,-71.00292909777609,43.29460778601958,-71.00092909777608,43.29660778601958
"135 N Broadway unit B, Salem, NH, 03079",42.7858220193469,-71.2329920061086,"135 N Broadway, Unit B, Salem, New Hampshire, 03079",100,-71.23299200610863,42.78582201934691,-71.23399200610864,42.78482201934691,-71.23199200610863,42.78682201934691
"5 Vanderbilt Dr Apt 306, Merrimack, NH, 03054-4225",42.8283400194852,-71.5323400271741,"03054-4225, Merrimack, New Hampshire",86.5,-71.53234002717414,42.828340019485154,-71.53334002717415,42.82734001948515,-71.53134002717414,42.82934001948515
"3 Depot St, WOLFEBORO, NH, 03894-4349",43.5853591567541,-71.2128460205948,"3 Depot St, Wolfeboro, New Hampshire, 03894",100,-71.21284602059477,43.58535915675409,-71.21384602059477,43.58435915675409,-71.21184602059476,43.586359156754085
"1 EAGLE SQUARE, CONCORD, NH, 03301-4903",43.2071769811246,-71.5361070220992,"1 Eagle Sq, Concord, New Hampshire, 03301",100,-71.53610702209924,43.20717698112463,-71.53710702209925,43.206176981124635,-71.53510702209924,43.20817698112463
"131 D.W. HWY. #458, NASHUA, NH, 03060",42.7621395706415,-71.4478463000931,"131 D St, Nashua, New Hampshire, 03060",87.14,-71.44784630009312,42.762139570641494,-71.44884630009312,42.7611395706415,-71.44684630009311,42.76313957064149
"217 Main street, Lincoln, NH, 03251",44.0479717331714,-71.6636218978808,"217 Main St, Lincoln, New Hampshire, 03251",100,-71.66362189788076,44.04797173317142,-71.66462189788076,44.046971733171425,-71.66262189788075,44.04897173317142
"211 Loudon rd, Concord, NH, 03301",43.2206560034401,-71.4982909762758,"211 Loudon Rd, Concord, New Hampshire, 03301",100,-71.49829097627583,43.2206560034401,-71.49929097627583,43.2196560034401,-71.49729097627582,43.221656003440096
"21 Bayview Lane, Bridgewater, NH, 03222",43.6646378933272,-71.7433884096049,"21 Bayview Ln, Bristol, New Hampshire, 03222",98.14,-71.74338840960493,43.6646378933272,-71.74438840960494,43.6636378933272,-71.74238840960493,43.665637893327194
"123 BROADWAY, Hillsdale, NJ, 07642",41.003224388861,-74.0407129009432,"123 Broadway, Hillsdale, New Jersey, 07642",100,-74.04071290094319,41.00322438886105,-74.0417129009432,41.00222438886105,-74.03971290094319,41.00422438886105
"5 Plainsboro Rd Ste 100, Plainsboro, NJ, 08536-1915",40.3395826320742,-74.6271819639015,"5 Plainsboro Rd, Plainsboro, New Jersey, 08536",100,-74.62718196390155,40.339582632074155,-74.62818196390155,40.33858263207416,-74.62618196390154,40.34058263207415
"330 Boulevard, Hasbrouck Heights, NJ, 07604-1317",40.865519542752,-74.0744508610528,"330 Boulevard, Hasbrouck Heights, New Jersey, 07604",100,-74.07445086105278,40.86551954275201,-74.07545086105279,40.864519542752014,-74.07345086105278,40.86651954275201
"30-16 Broadway, Fairlawn, NJ, 07410",40.9238629885595,-74.105309962344,"30-16 Broadway, Fair Lawn, New Jersey, 07410",100,-74.10530996234404,40.92386298855948,-74.10630996234404,40.92286298855948,-74.10430996234403,40.924862988559475
"1045 CRANBURY SOUTH RIVER RD, MONROE TOWNSHIP, NJ, 08831-3408",40.3611504545884,-74.4666458914466,"1045 Cranbury-South River Rd, Monroe Township, New Jersey, 08831",100,-74.46664589144665,40.361150454588376,-74.46764589144665,40.36015045458838,-74.46564589144664,40.362150454588374
"1324 White St, Hillside, NJ, 07205-2221",40.6967004691139,-74.2306848194248,"1324 White St, Hillside, New Jersey, 07205",100,-74.23068481942477,40.69670046911386,-74.23168481942477,40.69570046911386,-74.22968481942476,40.697700469113855
"646 DELSEA DRIVE, SEWELL, NJ, 08080",39.7432640053999,-75.1129279635441,"646 Delsea Dr, Pitman, New Jersey, 08071",97.13,-75.11292796354411,39.74326400539991,-75.11392796354411,39.74226400539991,-75.1119279635441,39.744264005399906
"1059 KING GEORGE POST RD, EDISON, NJ, 08837",40.5245115023515,-74.3226397040253,"1059 King George Post Rd, Edison, New Jersey, 08837",100,-74.32263970402535,40.52451150235151,-74.32363970402535,40.52351150235151,-74.32163970402534,40.525511502351506
"396 RYDERS LN RYDERS CROSSING SHOPPING CENTER, MILLTOWN, NJ, 08850",40.442706,-74.424929,Ryders Crossing,96.67,-74.42492899999996,40.44270600000005,-74.42692899999996,40.44070600000004,-74.42292899999997,40.444706000000046
"1324 WHITE ST, HILLSIDE, NJ, 07205",40.6967004691139,-74.2306848194248,"1324 White St, Hillside, New Jersey, 07205",100,-74.23068481942477,40.69670046911386,-74.23168481942477,40.69570046911386,-74.22968481942476,40.697700469113855
"2954 kennedy blvd, jersey city, NJ, 07306",40.7339051519618,-74.0628840324323,"2954 John F Kennedy Blvd, Jersey City, New Jersey, 07306",100,-74.06288403243228,40.73390515196177,-74.06388403243228,40.73290515196177,-74.06188403243227,40.73490515196177
"76 Passaic Ave, FLORHAM PARK, NJ, 07932-3053",40.7523932781057,-74.3645241348193,"76 Passaic Ave, Florham Park, New Jersey, 07932",100,-74.36452413481932,40.752393278105714,-74.36552413481932,40.75139327810571,-74.36352413481931,40.75339327810571
"226 Nth 38Th St., Camden, NJ, 08105",39.9500570457509,-75.0707638014743,"38th St, Pennsauken, New Jersey, 08110",90.36,-75.07076380147429,39.95005704575089,-75.07176380147429,39.94905704575089,-75.06976380147428,39.951057045750886
"93 route 23, hamburg, NJ, 07419",41.1755000013744,-74.5886919715389,"93 State Rt 23, Hamburg, New Jersey, 07419",100,-74.5886919715389,41.17550000137439,-74.58969197153891,41.17450000137439,-74.5876919715389,41.176500001374386
"93 State Route 23, HAMBURG, NJ, 07419-2336",41.1755000013744,-74.5886919715389,"93 State Rt 23, Hamburg, New Jersey, 07419",100,-74.5886919715389,41.17550000137439,-74.58969197153891,41.17450000137439,-74.5876919715389,41.176500001374386
"330 E Commerce St, Bridgeton, NJ, 08302-2615",39.4269669798328,-75.2245210182036,"330 E Commerce St, Bridgeton, New Jersey, 08302",100,-75.22452101820359,39.42696697983283,-75.2255210182036,39.42596697983283,-75.22352101820358,39.427966979832824
"1217 S Shore Rd Suite 106, Ocean view, NJ, 08230",39.2368196988239,-74.6782035755227,"1217 Shore Rd, Ocean View, New Jersey, 08230",98.87,-74.67820357552266,39.2368196988239,-74.67920357552266,39.2358196988239,-74.67720357552265,39.2378196988239
"30-16 Broadway, Fair Lawn, NJ, 07410",40.9238629885595,-74.105309962344,"30-16 Broadway, Fair Lawn, New Jersey, 07410",100,-74.10530996234404,40.92386298855948,-74.10630996234404,40.92286298855948,-74.10430996234403,40.924862988559475
"402 South White Horse Pike, Magnolia, NJ, 08049",39.8528720158398,-75.0258079706811,"402 S White Horse Pike, Magnolia, New Jersey, 08049",100,-75.02580797068114,39.85287201583984,-75.02680797068115,39.85187201583984,-75.02480797068114,39.85387201583983
"27 Orient Way, Lyndhurst, NJ, 07071-1210",40.8130154572405,-74.1096089940453,"27 Orient Way, Lyndhurst, New Jersey, 07071",100,-74.10960899404532,40.813015457240475,-74.11060899404532,40.81201545724048,-74.10860899404531,40.81401545724047
"5 PLAINSBORO ROAD SUITE 460, plainsboro, NJ, 08536-1800",40.3395826320742,-74.6271819639015,"5 Plainsboro Rd, Plainsboro, New Jersey, 08536",100,-74.62718196390155,40.339582632074155,-74.62818196390155,40.33858263207416,-74.62618196390154,40.34058263207415
"1 Parkway, Upper Saddle River, NJ, 07458-2388",41.0479036283277,-74.1177283080979,"1 Parkway, Saddle River, New Jersey, 07458",100,-74.11772830809791,41.04790362832774,-74.11872830809791,41.04690362832774,-74.1167283080979,41.048903628327736
"38-63 TAYLOR ROAD, FAIR LAWN, NJ, 07410",40.9398020156379,-74.1022339715167,"38-63 Taylor Rd, Fair Lawn, New Jersey, 07410",100,-74.10223397151671,40.939802015637895,-74.10323397151672,40.9388020156379,-74.1012339715167,40.94080201563789
"10 Bank Street, Farmingdale, NJ, 07727-1304",40.1943759541602,-74.1661396133706,"10 Bank St, Farmingdale, New Jersey, 07727",100,-74.16613961337059,40.19437595416017,-74.1671396133706,40.193375954160175,-74.16513961337058,40.19537595416017
"3800 32nd Street, Union City, NJ, 07087",40.777628994909,-74.031591040097,"3800 32nd St, Union City, New Jersey, 07087",100,-74.03159104009698,40.77762899490895,-74.03259104009699,40.776628994908954,-74.03059104009698,40.77862899490895
"66 Central Square, LINWOOD, NJ, 08221",39.3601701658835,-74.567296621927,"66 Central Sq, Linwood, New Jersey, 08221",100,-74.56729662192699,39.36017016588349,-74.56829662192699,39.35917016588349,-74.56629662192698,39.361170165883486
"330 East Commerce Street 0.0, Bridgeton, NJ, 08302-8302",39.4269669798328,-75.2245210182036,"330 E Commerce St, Bridgeton, New Jersey, 08302",99.53,-75.22452101820359,39.42696697983283,-75.2255210182036,39.42596697983283,-75.22352101820358,39.427966979832824
"143 Route 9 North, ENGLISHTOWN, NJ, 07726-8230",40.2962761513742,-74.3008854835168,"143 US-9 S, Englishtown, New Jersey, 07726",98.85,-74.30088548351677,40.296276151374215,-74.30188548351677,40.29527615137422,-74.29988548351676,40.29727615137421
"1059 King Georges Post Rd, Edison, NJ, 08837-3582",40.525134010485,-74.3227989758937,"1059 King Georges Post Rd, Edison, New Jersey, 08837",100,-74.32279897589366,40.525134010484976,-74.32379897589367,40.52413401048498,-74.32179897589366,40.526134010484974
"30-16 BROADWAY, Fair Lawn, NJ, 07410",40.9238629885595,-74.105309962344,"30-16 Broadway, Fair Lawn, New Jersey, 07410",100,-74.10530996234404,40.92386298855948,-74.10630996234404,40.92286298855948,-74.10430996234403,40.924862988559475
"2400 Atlantic Ave, Atlantic City, NJ, 08401-6631",39.356742012015,-74.4406409908275,"2400 Atlantic Ave, Atlantic City, New Jersey, 08401",100,-74.44064099082753,39.35674201201496,-74.44164099082754,39.35574201201496,-74.43964099082753,39.35774201201496
"15-01 Broadway Ste 18, Fair Lawn, NJ, 07410-6018",40.92120097993,-74.1185360188217,"15-01 Broadway, Ste 18, Fair Lawn, New Jersey, 07410",100,-74.11853601882166,40.92120097992998,-74.11953601882166,40.92020097992998,-74.11753601882165,40.922200979929976
"5 Plainsboro Rd Ste 460, Plainsboro, NJ, 08536-1915",40.3395826320742,-74.6271819639015,"5 Plainsboro Rd, Plainsboro, New Jersey, 08536",100,-74.62718196390155,40.339582632074155,-74.62818196390155,40.33858263207416,-74.62618196390154,40.34058263207415
"149 PARK AVE, LYNDHURST, NJ, 07071",40.8185730523676,-74.1270220839454,"149 Park Ave, Lyndhurst, New Jersey, 07071",100,-74.12702208394538,40.8185730523676,-74.12802208394538,40.8175730523676,-74.12602208394537,40.819573052367595
"1261 South River Road, CRANBURY, NJ, 08512-3607",40.325570996071,-74.5008239776366,"1261 S River Rd, Cranbury, New Jersey, 08512",100,-74.50082397763656,40.32557099607101,-74.50182397763656,40.32457099607101,-74.49982397763655,40.326570996071005
"3106 Sylon Blvd, Hainesport, NJ, 08036-3661",39.9784987402705,-74.8482180930376,"3106 Sylon Blvd, Hainesport, New Jersey, 08036",100,-74.84821809303763,39.97849874027047,-74.84921809303763,39.97749874027047,-74.84721809303763,39.979498740270465
"330 E Commerce St Ste 503, Bridgeton, NJ, 08302-2615",39.4269669798328,-75.2245210182036,"330 E Commerce St, Bridgeton, New Jersey, 08302",100,-75.22452101820359,39.42696697983283,-75.2255210182036,39.42596697983283,-75.22352101820358,39.427966979832824
"149 Park Ave, Lyndhurst, NJ, 07071-1419",40.8185730523676,-74.1270220839454,"149 Park Ave, Lyndhurst, New Jersey, 07071",100,-74.12702208394538,40.8185730523676,-74.12802208394538,40.8175730523676,-74.12602208394537,40.819573052367595
"149 Park Avenue, LYNDHURST, NJ, 07071",40.8185730523676,-74.1270220839454,"149 Park Ave, Lyndhurst, New Jersey, 07071",100,-74.12702208394538,40.8185730523676,-74.12802208394538,40.8175730523676,-74.12602208394537,40.819573052367595
"402 S White Horse Pike, Magnolia, NJ, 08049-1061",39.8528720158398,-75.0258079706811,"402 S White Horse Pike, Magnolia, New Jersey, 08049",100,-75.02580797068114,39.85287201583984,-75.02680797068115,39.85187201583984,-75.02480797068114,39.85387201583983
"800 Bergen Town Ctr, Paramus, NJ, 07652-5010",40.9155103668924,-74.06036401152,"800 Bergen Town Ctr, Paramus, New Jersey, 07652",100,-74.06036401151998,40.91551036689241,-74.06136401151998,40.914510366892415,-74.05936401151997,40.91651036689241
"171 East Main Street, LEDGEWOOD, NJ, 07852-9643",40.874367919845,-74.6465277098432,"171 E Main St, Ledgewood, New Jersey, 07852",100,-74.6465277098432,40.874367919845014,-74.6475277098432,40.873367919845016,-74.6455277098432,40.87536791984501
"58 Beech Road Englewood NJ 07631, Hackensack, NJ, 07601",40.8857290171486,-73.9642540151087,"58 Beech Rd, Englewood, New Jersey, 07631",96.36,-73.9642540151087,40.885729017148606,-73.9652540151087,40.88472901714861,-73.96325401510869,40.8867290171486
"50 S 21st Street, Kenilworth, NJ, 07033",40.6742989880379,-74.2908899925141,"50 S 21st St, Kenilworth, New Jersey, 07033",100,-74.29088999251411,40.67429898803789,-74.29188999251411,40.67329898803789,-74.2898899925141,40.67529898803789
"50 S 21st St, Kenilworth, NJ, 07033-1626",40.6742989880379,-74.2908899925141,"50 S 21st St, Kenilworth, New Jersey, 07033",100,-74.29088999251411,40.67429898803789,-74.29188999251411,40.67329898803789,-74.2898899925141,40.67529898803789
"15-01 Broadway, Fair Lawn, NJ, 07410",40.92120097993,-74.1185360188217,"15-01 Broadway, Fair Lawn, New Jersey, 07410",100,-74.11853601882166,40.92120097992998,-74.11953601882166,40.92020097992998,-74.11753601882165,40.922200979929976
"703 W White Horse Pike, Galloway, NJ, 08205",39.4987140926353,-74.604245077362,"703 W White Horse Pike, Egg Harbor City, New Jersey, 08215",97.16,-74.60424507736197,39.498714092635346,-74.60524507736197,39.49771409263535,-74.60324507736196,39.499714092635344
"17 MAPLE AVE, FAIR LAWN, NJ, 07410-1552",40.9459800783382,-74.13975918953,"Maple Ave, Fair Lawn, New Jersey, 07410",97.59,-74.13975918953004,40.94598007833819,-74.14075918953004,40.94498007833819,-74.13875918953003,40.946980078338186
"27 ORIENT WAY, LYNDHURST, NJ, 07071",40.8130154572405,-74.1096089940453,"27 Orient Way, Lyndhurst, New Jersey, 07071",100,-74.10960899404532,40.813015457240475,-74.11060899404532,40.81201545724048,-74.10860899404531,40.81401545724047
"15-01 Broadway Ste 10F, Fair Lawn, NJ, 07410-6026",40.9212679932459,-74.1185650202066,"15-01 Broadway, Ste 10F, Fair Lawn, New Jersey, 07410",100,-74.11856502020665,40.92126799324586,-74.11956502020665,40.920267993245865,-74.11756502020664,40.92226799324586
"251 1/2 Grove Avenue, Verona, NJ, 07009",40.843300996741,-74.2369739870713,"251 1/2 Grove Ave, Verona, New Jersey, 07044",99.51,-74.2369739870713,40.843300996740965,-74.2379739870713,40.84230099674097,-74.23597398707129,40.84430099674096
"22-18 Broadway Ste 103, Fair Lawn, NJ, 07410-3016",40.9220589934485,-74.1130540026878,"22-18 Broadway, Fair Lawn, New Jersey, 07410",100,-74.11305400268783,40.92205899344853,-74.11405400268784,40.92105899344853,-74.11205400268783,40.92305899344853
"7 US Highway 46 W, Lodi, NJ, 07644-1317",40.8858429561487,-74.0900020115919,"7 US Highway 46 W, Lodi, New Jersey, 07644",100,-74.09000201159193,40.8858429561487,-74.09100201159194,40.8848429561487,-74.08900201159193,40.8868429561487
"141 Wabash Avenue, CLIFTON, NJ, 07011",40.8901984473717,-74.1477295442225,"141 Wabash Ave, Clifton, New Jersey, 07011",100,-74.14772954422249,40.89019844737165,-74.14872954422249,40.889198447371655,-74.14672954422248,40.89119844737165
"2130 Hwy 35 N, BELMAR, NJ, 07719-1010",40.1746274476071,-74.0428262366898,"RT-35 N, Belmar, New Jersey, 07719",94.81,-74.04282623668982,40.17462744760714,-74.04382623668982,40.173627447607146,-74.04182623668981,40.17562744760714
"265 NORTH WOLFERT, Mickleton, NJ, 08056",39.7938199992263,-75.2706100024612,"265 N Wolfert Station Rd, Mickleton, New Jersey, 08056",92.54,-75.27061000246117,39.79381999922629,-75.27161000246117,39.79281999922629,-75.26961000246116,39.79481999922629
"97 Main Street, Newton, NJ, 07860",41.0554639813749,-74.7545979985756,"97 Main St, Newton, New Jersey, 07860",100,-74.75459799857559,41.05546398137486,-74.7555979985756,41.05446398137486,-74.75359799857559,41.056463981374854
"2000 FLORENCE AVE, HAZLET, NJ, 07730-1502",40.425661984098,-74.1932789581796,"2000 Florence Ave, Hazlet, New Jersey, 07730",100,-74.19327895817965,40.425661984097985,-74.19427895817965,40.42466198409799,-74.19227895817964,40.42666198409798
"760 E MAIN ST, MOORESTOWN, NJ, 08057-3040",39.974136394433,-74.9111973700326,"760 E Main St, Moorestown, New Jersey, 08057",100,-74.91119737003258,39.97413639443295,-74.91219737003259,39.97313639443296,-74.91019737003258,39.97513639443295
"337 Carriage Dr, Mt Royal, NJ, 08061",39.7893759979817,-75.1983699832104,"337 Carriage Dr, Mount Royal, New Jersey, 08061",100,-75.1983699832104,39.78937599798169,-75.1993699832104,39.788375997981696,-75.1973699832104,39.79037599798169
"1920 Rt 37 east, TOMS RIVER, NJ, 08753",39.9516420159264,-74.1439579958766,"1920 Route 37 E, Toms River, New Jersey, 08753",100,-74.14395799587665,39.95164201592638,-74.14495799587665,39.950642015926384,-74.14295799587664,39.95264201592638
"26-15 Broadway, Fair Lawn, NJ, 07410-3821",40.923440978579,-74.1090462903116,"26-15 Broadway, Fair Lawn, New Jersey, 07410",100,-74.10904629031162,40.923440978579016,-74.11004629031163,40.92244097857902,-74.10804629031162,40.924440978579014
"806 MAIN ST., TOMS RIVER, NJ, 08753",39.9608423202735,-74.2001679782491,"806 Main St, Toms River, New Jersey, 08753",100,-74.20016797824908,39.96084232027349,-74.20116797824909,39.959842320273495,-74.19916797824908,39.96184232027349
"3601 SUNSET AVE, OCEAN, NJ, 07712",40.2390060109268,-74.0480690235496,"3601 Sunset Ave, Asbury Park, New Jersey, 07712",100,-74.04806902354959,40.2390060109268,-74.04906902354959,40.2380060109268,-74.04706902354958,40.2400060109268
"2400 Atlantic Avenue, Atlantic City, NJ, 08401",39.356742012015,-74.4406409908275,"2400 Atlantic Ave, Atlantic City, New Jersey, 08401",100,-74.44064099082753,39.35674201201496,-74.44164099082754,39.35574201201496,-74.43964099082753,39.35774201201496
"20-01 Maple Avenue, Fair Lawn, NJ, 07410",40.9437879877835,-74.1402439745796,"20-01 Maple Ave, Fair Lawn, New Jersey, 07410",100,-74.14024397457962,40.94378798778345,-74.14124397457962,40.942787987783454,-74.13924397457961,40.94478798778345
"1261 S River Rd, Cranbury, NJ, 08512-3607",40.325570996071,-74.5008239776366,"1261 S River Rd, Cranbury, New Jersey, 08512",100,-74.50082397763656,40.32557099607101,-74.50182397763656,40.32457099607101,-74.49982397763655,40.326570996071005
"1212 Cranbury South River Road, Cranbury Township, NJ, 08512",40.3351630130843,-74.4881725591754,"1212 Cranbury-South River Rd, Cranbury, New Jersey, 08512",100,-74.48817255917538,40.33516301308428,-74.48917255917539,40.334163013084286,-74.48717255917538,40.33616301308428
"485 RT 1 SOUTH BUILDING E SUITE 220, ISELIN, NJ, 08830",40.5546491728568,-74.3136670154445,"485 US Highway 1 S, Iselin, New Jersey, 08830",100,-74.31366701544451,40.55464917285675,-74.31466701544451,40.55364917285676,-74.3126670154445,40.555649172856754
"100 Park Ave Apt 3602, Fort Lee, NJ, 07024-3859",40.8512280140311,-73.9670069673876,"100 Park Ave, Apt 3602, Fort Lee, New Jersey, 07024",100,-73.96700696738763,40.85122801403108,-73.96800696738764,40.85022801403108,-73.96600696738763,40.85222801403108
"100 PARK AVE APT 3602, FORT LEE, NJ, 07024",40.8512280140311,-73.9670069673876,"100 Park Ave, Apt 3602, Fort Lee, New Jersey, 07024",100,-73.96700696738763,40.85122801403108,-73.96800696738764,40.85022801403108,-73.96600696738763,40.85222801403108
"90 Park Ave Ste 421, Florham Park, NJ, 07932-1068",40.7775359976932,-74.4218109615249,"90 Park Ave, Ste 421, Florham Park, New Jersey, 07932",100,-74.42181096152487,40.77753599769321,-74.42281096152487,40.77653599769321,-74.42081096152486,40.7785359976932
"16 BLOOMFIELD AVE, VERONA, NJ, 07044",40.8251873321836,-74.2288256347853,"16 Bloomfield Ave, Verona, New Jersey, 07044",100,-74.22882563478525,40.82518733218355,-74.22982563478526,40.82418733218355,-74.22782563478525,40.82618733218355
"150 SAINT CHARLES ST REAR LOT, NEWARK, NJ, 07105-0000",40.7250332564995,-74.1423711084467,"150 Saint Charles St, Newark, New Jersey, 07105",100,-74.1423711084467,40.72503325649951,-74.1433711084467,40.72403325649951,-74.14137110844669,40.726033256499505
"695 Cross St Ste 174, Lakewood, NJ, 08701-4619",40.0705100177184,-74.2429200253649,"695 Cross St, Lakewood, New Jersey, 08701",100,-74.24292002536492,40.07051001771842,-74.24392002536493,40.06951001771842,-74.24192002536492,40.07151001771842
"26-02 Broadway, Fair Lawn, NJ, 07410-3870",40.9230670011244,-74.1091580102728,"26-02 Broadway, Fair Lawn, New Jersey, 07410",100,-74.10915801027285,40.92306700112442,-74.11015801027285,40.922067001124425,-74.10815801027285,40.92406700112442
"2000 Florence Ave 2000 Florence Ave, Hazlet, NJ, 07730-1502",40.425661984098,-74.1932789581796,"2000 Florence Ave, Hazlet, New Jersey, 07730",96.81,-74.19327895817965,40.425661984097985,-74.19427895817965,40.42466198409799,-74.19227895817964,40.42666198409798
"295 Route 10 East, LEDGEWOOD, NJ, 07852",40.8738889058909,-74.6480346795572,"295 RT-10 E, Ledgewood, New Jersey, 07852",100,-74.64803467955718,40.87388890589085,-74.64903467955719,40.872888905890854,-74.64703467955718,40.87488890589085
"15-01 Broadway Ste 22, Fair Lawn, NJ, 07410-6006",40.921138995756,-74.118909013513,"15-01 Broadway, Ste 22, Fair Lawn, New Jersey, 07410",100,-74.11890901351296,40.921138995756,-74.11990901351297,40.920138995756,-74.11790901351296,40.922138995755994
"24-08 BROADWAY, FAIR LAWN, NJ, 07410-3065",40.9228988899135,-74.1107612755561,"24-08 Broadway, Fair Lawn, New Jersey, 07410",100,-74.11076127555607,40.92289888991346,-74.11176127555608,40.921898889913464,-74.10976127555607,40.92389888991346
"704-2 old shore rd, forked river, NJ, 08731",39.8240699944199,-74.2040379690957,"704 Old Shore Rd, Forked River, New Jersey, 08731",99.69,-74.20403796909565,39.82406999441986,-74.20503796909566,39.82306999441986,-74.20303796909565,39.825069994419856
"112 Route 526, Clarksburg, NJ, 08510",40.1677427726154,-74.4500390887584,"112 CR-526, Millstone Township, New Jersey, 08510",99.9,-74.45003908875844,40.16774277261545,-74.45103908875845,40.16674277261545,-74.44903908875844,40.168742772615445
"1675 PENNINGTON RD, EWING, NJ, 08618",40.2579778015878,-74.7793464461323,"1675 Pennington Rd, Trenton, New Jersey, 08618",99.9,-74.77934644613232,40.25797780158776,-74.78034644613233,40.256977801587766,-74.77834644613232,40.25897780158776
"15 7TH ST, HARRISON, NJ, 07029-1905",40.7466900072744,-74.1509989621821,"15 7th St, Harrison, New Jersey, 07029",100,-74.15099896218209,40.74669000727437,-74.15199896218209,40.74569000727437,-74.14999896218208,40.747690007274365
"505 SPRINGFIELD AVE, BERKELEY HEIGHTS, NJ, 07922-1180",40.6835526696915,-74.4425725308688,"505 Springfield Ave, Berkeley Heights, New Jersey, 07922",100,-74.44257253086883,40.68355266969148,-74.44357253086883,40.68255266969148,-74.44157253086883,40.68455266969148
"505 Springfield Ave, Berkeley Heights, NJ, 07922-1180",40.6835526696915,-74.4425725308688,"505 Springfield Ave, Berkeley Heights, New Jersey, 07922",100,-74.44257253086883,40.68355266969148,-74.44357253086883,40.68255266969148,-74.44157253086883,40.68455266969148
"216-222 Union Street, Hackensack, NJ, 07601",40.8853736931396,-74.0456630348213,"222 Union St, Hackensack, New Jersey, 07601",99.12,-74.04566303482133,40.88537369313959,-74.04666303482134,40.884373693139594,-74.04466303482133,40.88637369313959
"5 Aaron Way Unit A, Sparta, NJ, 07871",41.0845460002704,-74.6537669723173,"5 Aaron Way, Apt A, Lafayette, New Jersey, 07848",99.49,-74.65376697231726,41.08454600027042,-74.65476697231726,41.083546000270424,-74.65276697231725,41.08554600027042
"56 US HIGHWAY 206 N STANHOPE, STANHOPE, NJ, 07826-5077",41.1843317201484,-74.7972622864143,"56 US Highway 206 N, Branchville, New Jersey, 07826",95.09,-74.79726228641434,41.184331720148386,-74.79826228641434,41.18333172014839,-74.79626228641433,41.18533172014838
"22 Church Street #60, LIBERTY CORNER, NJ, 07938-9880",40.6648729930934,-74.5799029593262,"22 Church St, Basking Ridge, New Jersey, 07920",99.49,-74.57990295932623,40.66487299309338,-74.58090295932624,40.663872993093385,-74.57890295932623,40.66587299309338
"1 LAURENCE PKWY, LAURENCE HARBOR, NJ, 08879-2771",40.456670550194,-74.2465023881511,"1 Laurence Pkwy, South Amboy, New Jersey, 08879",99.9,-74.24650238815111,40.45667055019404,-74.24750238815112,40.45567055019404,-74.24550238815111,40.45767055019404
"24-08 Broadway, Fair Lawn, NJ, 07410-3065",40.9228988899135,-74.1107612755561,"24-08 Broadway, Fair Lawn, New Jersey, 07410",100,-74.11076127555607,40.92289888991346,-74.11176127555608,40.921898889913464,-74.10976127555607,40.92389888991346
"30-16 Broadway Suite 2, Fair Lawn, NJ, 07410",40.9238629885595,-74.105309962344,"30-16 Broadway, Ste 2, Fair Lawn, New Jersey, 07410",100,-74.10530996234404,40.92386298855948,-74.10630996234404,40.92286298855948,-74.10430996234403,40.924862988559475
"2109 SAINT GEORGES AVE, RAHWAY, NJ, 07065-2060",40.621649147307,-74.2796137208569,"2109 Saint Georges Ave, Rahway, New Jersey, 07065",100,-74.27961372085686,40.62164914730697,-74.28061372085686,40.62064914730697,-74.27861372085685,40.622649147306966
"482 US 202 N, Flemington, NJ, 08822",40.5145324904416,-74.8235509043214,"482 US-202 N, Flemington, New Jersey, 08822",100,-74.82355090432141,40.5145324904416,-74.82455090432141,40.513532490441605,-74.8225509043214,40.5155324904416
"1602 PENNINGTON ROAD, EWING, NJ, 08618-1304",40.2545080055737,-74.7771429711846,"1602 Pennington Rd, Trenton, New Jersey, 08618",100,-74.77714297118463,40.254508005573655,-74.77814297118464,40.25350800557366,-74.77614297118463,40.25550800557365
"1602 Pennington Rd, EWING, NJ, 08618-1304",40.2545080055737,-74.7771429711846,"1602 Pennington Rd, Trenton, New Jersey, 08618",100,-74.77714297118463,40.254508005573655,-74.77814297118464,40.25350800557366,-74.77614297118463,40.25550800557365
"729 Mantua Pike, Woodbury, NJ, 08096",39.8230927604385,-75.1611664056824,"729 Mantua Pike, Deptford, New Jersey, 08096",99.9,-75.16116640568238,39.823092760438534,-75.16216640568238,39.82209276043854,-75.16016640568238,39.82409276043853
"729 Mantua Pike, WOODBURY, NJ, 08096",39.8230927604385,-75.1611664056824,"729 Mantua Pike, Deptford, New Jersey, 08096",99.9,-75.16116640568238,39.823092760438534,-75.16216640568238,39.82209276043854,-75.16016640568238,39.82409276043853
"691 Mill Creek Rd, Manahawkin, NJ, 08050",39.6815279318765,-74.2384175440737,"691 Mill Creek Rd, Manahawkin, New Jersey, 08050",100,-74.2384175440737,39.68152793187646,-74.2394175440737,39.68052793187646,-74.2374175440737,39.68252793187646
"440 Franklin, BLOOMFIELD, NJ, 07003-2549",40.7937349894986,-74.1966580386258,"440 Franklin St, Bloomfield, New Jersey, 07003",98.82,-74.1966580386258,40.79373498949863,-74.1976580386258,40.79273498949863,-74.1956580386258,40.79473498949863
"1710 Boulevard, seaside Park, NJ, 08752-1207",39.9351865053018,-74.074647117946,"1710 Boulevard, Seaside Park, New Jersey, 08752",100,-74.07464711794604,39.93518650530181,-74.07564711794605,39.93418650530181,-74.07364711794604,39.936186505301805
"206 Rowan Blvd, Glassboro, NJ, 08028",39.7051749809191,-75.1133999443981,"206 Rowan Blvd, Glassboro, New Jersey, 08028",100,-75.11339994439813,39.705174980919104,-75.11439994439813,39.704174980919106,-75.11239994439812,39.7061749809191
"15-01 Broadway Ste 28, Fair Lawn, NJ, 07410-6018",40.9211830007477,-74.118793007973,"15-01 Broadway, Ste 28, Fair Lawn, New Jersey, 07410",100,-74.11879300797303,40.921183000747675,-74.11979300797303,40.92018300074768,-74.11779300797302,40.92218300074767
"15-01 BROADWAY STE 28, FAIR LAWN, NJ, 07410",40.9211830007477,-74.118793007973,"15-01 Broadway, Ste 28, Fair Lawn, New Jersey, 07410",100,-74.11879300797303,40.921183000747675,-74.11979300797303,40.92018300074768,-74.11779300797302,40.92218300074767
"26 AVENUE AT PORT IMPERIAL 235, WEST NEW YORK, NJ, 07093",40.780121018542,-74.0083360364699,"26 Ave at Port Imperial, Apt 235, West New York, New Jersey, 07093",100,-74.00833603646994,40.78012101854205,-74.00933603646995,40.77912101854205,-74.00733603646994,40.781121018542045
"16 Bloomfield Ave, Verona, NJ, 07044-2709",40.8251873321836,-74.2288256347853,"16 Bloomfield Ave, Verona, New Jersey, 07044",100,-74.22882563478525,40.82518733218355,-74.22982563478526,40.82418733218355,-74.22782563478525,40.82618733218355
"50 Jule Court, Lakewood Township, NJ, 08701",40.0871999795023,-74.2487470406335,"50 Jule Ct, Lakewood, New Jersey, 08701",100,-74.24874704063346,40.087199979502344,-74.24974704063347,40.08619997950235,-74.24774704063346,40.08819997950234
"97 Main St, Newton, NJ, 07860-2089",41.0554639813749,-74.7545979985756,"97 Main St, Newton, New Jersey, 07860",100,-74.75459799857559,41.05546398137486,-74.7555979985756,41.05446398137486,-74.75359799857559,41.056463981374854
"341 Ramapo Valley Road, Oakland, NJ, 07436",41.0237415980821,-74.2431434322858,"341 Ramapo Valley Rd, Oakland, New Jersey, 07436",100,-74.24314343228582,41.02374159808215,-74.24414343228582,41.02274159808215,-74.24214343228581,41.024741598082144
"40 Monmouth Park STATE ROUTE 36, WEST LONG BRANCH, NJ, 07764-1468",40.2988381825166,-74.0225971467163,"State Route 36, West Long Branch, New Jersey, 07764",90.39,-74.02259714671625,40.29883818251665,-74.02359714671626,40.29783818251665,-74.02159714671625,40.299838182516645
"1919 Rt 35 Suite 301, Wall, NJ, 07724-3512",40.2621622871183,-74.0413569146567,"1919 State Route 35, Oakhurst, New Jersey, 07755",97.45,-74.04135691465672,40.26216228711825,-74.04235691465672,40.26116228711825,-74.04035691465671,40.26316228711825
"38 Brower Lane, Hillsborough, NJ, 08844",40.4994888123727,-74.6305477149817,"38 Brower Ln, Hillsborough, New Jersey, 08844",100,-74.63054771498167,40.49948881237273,-74.63154771498168,40.498488812372734,-74.62954771498167,40.50048881237273
"756 RT 46 West, PARSIPPANY, NJ, 07054",40.8620741331302,-74.372994588203,"756 US-46 W, Parsippany, New Jersey, 07054",100,-74.37299458820304,40.86207413313017,-74.37399458820305,40.861074133130174,-74.37199458820304,40.86307413313017
"15-01 BROADWAY STE 26, FAIR LAWN, NJ, 07410-6023",40.921048010197,-74.1188660143497,"15-01 Broadway, Ste 26, Fair Lawn, New Jersey, 07410",100,-74.11886601434968,40.92104801019701,-74.11986601434968,40.920048010197014,-74.11786601434967,40.92204801019701
"17-20 Willow St, Fair Lawn, NJ, 07410-2057",40.9257240966873,-74.1185472430265,"17-20 Willow St, Fair Lawn, New Jersey, 07410",98.9,-74.11854724302654,40.92572409668726,-74.11954724302655,40.924724096687264,-74.11754724302654,40.92672409668726
"127 Paterson Ave, Wallington, NJ, 07057-1215",40.8514650123433,-74.1149270227714,"127 Paterson Ave, Wallington, New Jersey, 07057",100,-74.11492702277141,40.85146501234334,-74.11592702277142,40.85046501234334,-74.1139270227714,40.85246501234334
"695 Cross Street Unit 189, Lakewood Township, NJ, 08701",40.0705100177184,-74.2429200253649,"695 Cross St, Lakewood, New Jersey, 08701",100,-74.24292002536492,40.07051001771842,-74.24392002536493,40.06951001771842,-74.24192002536492,40.07151001771842
"26-01 Broadway, Fair Lawn, NJ, 07410-3861",40.9233621386791,-74.109380970406,"26-01 Broadway, Fair Lawn, New Jersey, 07410",100,-74.10938097040598,40.923362138679074,-74.11038097040598,40.92236213867908,-74.10838097040597,40.92436213867907
"2304 Park Ave W, Hainesport, NJ, 08036-3733",39.9805139588328,-74.8496849763252,"2304 Park Ave W, Hainesport, New Jersey, 08036",100,-74.84968497632515,39.98051395883282,-74.85068497632516,39.979513958832825,-74.84868497632515,39.98151395883282
"216 Winterwood Lane, MULLICA HILL, NJ, 08062",39.7224610018183,-75.2132020123364,"216 Winterwood Ln, Mullica Hill, New Jersey, 08062",100,-75.21320201233644,39.72246100181829,-75.21420201233644,39.72146100181829,-75.21220201233643,39.723461001818286
"80 Passaic Avenue, FLORHAM PARK, NJ, 07932-3053",40.7518989829123,-74.3622759796503,"80 Passaic Ave, Florham Park, New Jersey, 07932",100,-74.36227597965033,40.75189898291225,-74.36327597965034,40.750898982912254,-74.36127597965033,40.75289898291225
"131 STATE ROUTE 10 E, SUCCASUNNA, NJ, 07876-1440",40.8656795973146,-74.6372408754183,"131 State Route 10 E, Succasunna, New Jersey, 07876",100,-74.63724087541831,40.86567959731462,-74.63824087541832,40.86467959731462,-74.63624087541831,40.866679597314615
"81 Route 46 West, LODI, NJ, 07644-3625",40.8810380012174,-74.0798950260877,"81 US Highway 46 W, Lodi, New Jersey, 07644",100,-74.07989502608771,40.88103800121743,-74.08089502608772,40.88003800121744,-74.07889502608771,40.88203800121743
"482 ROUTE 202 NORTH, FLEMINGTON, NJ, 08822",40.5145324904416,-74.8235509043214,"482 US-202 N, Flemington, New Jersey, 08822",100,-74.82355090432141,40.5145324904416,-74.82455090432141,40.513532490441605,-74.8225509043214,40.5155324904416
"1030-32 STUYVESANT AVE, IRVINGTON, NJ, 07111",40.7149960197112,-74.2492859970076,"1030 Stuyvesant Ave, Irvington, New Jersey, 07111",99.43,-74.24928599700765,40.71499601971123,-74.25028599700765,40.71399601971124,-74.24828599700764,40.715996019711234
"22 Church Street PO Box 17, LIBERTY CORNER, NJ, 07938",40.6648729930934,-74.5799029593262,"22 Church St, Basking Ridge, New Jersey, 07920",97.5,-74.57990295932623,40.66487299309338,-74.58090295932624,40.663872993093385,-74.57890295932623,40.66587299309338
"22-01 Broadway, Fair Lawn, NJ, 07410",40.9224500092317,-74.1138719926187,"22-01 Broadway, Fair Lawn, New Jersey, 07410",100,-74.11387199261871,40.92245000923165,-74.11487199261872,40.921450009231656,-74.11287199261871,40.92345000923165
"53 Main St, Oldwick, NJ, 08858",40.66729,-74.7493449999999,"08858, Oldwick, New Jersey",85.45,-74.74934499999995,40.66729000000004,-74.78034499999995,40.63629000000004,-74.71834499999994,40.69829000000003
"1602 Pennington Road, EWING, NJ, 08618-1304",40.2545080055737,-74.7771429711846,"1602 Pennington Rd, Trenton, New Jersey, 08618",100,-74.77714297118463,40.254508005573655,-74.77814297118464,40.25350800557366,-74.77614297118463,40.25550800557365
"586 Ocean Avenue, Long Branch, NJ, 07740",40.2861419790234,-73.981919494481,"586 Ocean Ave, Long Branch, New Jersey, 07740",100,-73.98191949448105,40.286141979023434,-73.98291949448105,40.28514197902344,-73.98091949448104,40.28714197902343
"38 Brower Ln, Hillsborough, NJ, 08844-1270",40.4994888123727,-74.6305477149817,"38 Brower Ln, Hillsborough, New Jersey, 08844",100,-74.63054771498167,40.49948881237273,-74.63154771498168,40.498488812372734,-74.62954771498167,40.50048881237273
"106 Kurland Avenue, Wayne, NJ, 07470",40.9216082439932,-74.274177952838,"106 Kurland St, Wayne, New Jersey, 07470",98.04,-74.274177952838,40.921608243993155,-74.275177952838,40.92060824399316,-74.273177952838,40.92260824399315
"1676 North Olden Avenue, Ewing Township, NJ, 08638",40.246118507522,-74.7643105372181,"1676 N Olden Ave, Trenton, New Jersey, 08638",100,-74.7643105372181,40.246118507522006,-74.7653105372181,40.24511850752201,-74.76331053721809,40.247118507522
"5 Aaron Way, SPARTA, NJ, 07871",41.0845460002704,-74.6537669723173,"5 Aaron Way, Sparta, New Jersey, 07871",100,-74.65376697231726,41.08454600027042,-74.65476697231726,41.083546000270424,-74.65276697231725,41.08554600027042
"711 Kings Hwy N, Cherry Hill, NJ, 08034-1510",39.9244405274451,-74.9987690651154,"711 Kings Hwy N, Cherry Hill, New Jersey, 08034",100,-74.99876906511543,39.924440527445135,-74.99976906511543,39.92344052744514,-74.99776906511542,39.92544052744513
"800 Bloomfield Ave, West Caldwell, NJ, 07006-6700",40.8501659321429,-74.2954122844945,"800 Bloomfield Ave, Caldwell, New Jersey, 07006",99.9,-74.29541228449452,40.85016593214294,-74.29641228449452,40.849165932142945,-74.29441228449451,40.85116593214294
"697 Mill Creek Road, Manahawkin, NJ, 08050",39.6813037547075,-74.238312896497,"697 Mill Creek Rd, Manahawkin, New Jersey, 08050",100,-74.238312896497,39.68130375470745,-74.23931289649701,39.68030375470745,-74.237312896497,39.68230375470745
"108 STRAUBE CENTER BLVD, PENNINGTON, NJ, 08534",40.3315693876537,-74.7957997987741,"108 Straube Center Blvd, Pennington, New Jersey, 08534",100,-74.79579979877407,40.33156938765368,-74.79679979877407,40.33056938765368,-74.79479979877406,40.33256938765368
"330 E Commerce St, BRIDGETON, NJ, 08302",39.4269669798328,-75.2245210182036,"330 E Commerce St, Bridgeton, New Jersey, 08302",100,-75.22452101820359,39.42696697983283,-75.2255210182036,39.42596697983283,-75.22352101820358,39.427966979832824
"1224 Saint Georges Ave, Avenel, NJ, 07001-1264",40.580108985575,-74.2936199783783,"1224 Saint Georges Ave, Avenel, New Jersey, 07001",100,-74.29361997837835,40.58010898557498,-74.29461997837835,40.57910898557498,-74.29261997837834,40.58110898557498
"5 Aaron Way, Sparta, NJ, 07871-3263",41.0845460002704,-74.6537669723173,"5 Aaron Way, Sparta, New Jersey, 07871",100,-74.65376697231726,41.08454600027042,-74.65476697231726,41.083546000270424,-74.65276697231725,41.08554600027042
"2410 Route 9 South, HOWELL, NJ, 07731-3335",40.1793815701269,-74.2442899364925,"2410 US-9 S, Howell, New Jersey, 07731",100,-74.24428993649249,40.17938157012686,-74.2452899364925,40.17838157012686,-74.24328993649249,40.180381570126855
"2030 NEW ROAD, LINWOOD, NJ, 08221-1026",39.3360470092558,-74.5869939655936,"2030 New Rd, Linwood, New Jersey, 08221",100,-74.58699396559363,39.336047009255765,-74.58799396559364,39.33504700925577,-74.58599396559363,39.33704700925576
"117 Town Square Pl, Jersey City, NJ, 07310-1756",40.7265550840056,-74.0336306822514,"117 Town Square Pl, Jersey City, New Jersey, 07310",100,-74.03363068225143,40.72655508400559,-74.03463068225143,40.72555508400559,-74.03263068225142,40.72755508400559
"2633 Main Street Suite 102, LAWRENCE TOWNSHIP, NJ, 08648-1086",40.2969999799025,-74.7308949822238,"2633 Main St, Ste 102, Lawrence Township, New Jersey, 08648",100,-74.73089498222382,40.29699997990252,-74.73189498222382,40.295999979902525,-74.72989498222381,40.29799997990252
"330 E COMMERCE ST STE 320, BRIDGETON, NJ, 08302-2615",39.4269669798328,-75.2245210182036,"330 E Commerce St, Bridgeton, New Jersey, 08302",100,-75.22452101820359,39.42696697983283,-75.2255210182036,39.42596697983283,-75.22352101820358,39.427966979832824
"65 Reaville Ave, Flemington, NJ, 08826",40.4997607848058,-74.8544934228319,"65 Reaville Ave, Flemington, New Jersey, 08822",98.33,-74.85449342283187,40.49976078480575,-74.85549342283187,40.498760784805754,-74.85349342283186,40.50076078480575
"24 YATES AVE, NEWTON, NJ, 07860",41.0403649886327,-74.7366209955591,"24 Yates Ave, Newton, New Jersey, 07860",100,-74.7366209955591,41.04036498863266,-74.7376209955591,41.03936498863266,-74.73562099555909,41.04136498863266
"7 Aaron Way, Sparta, NJ, 07871-3263",41.0841600136292,-74.6528049812898,"7 Aaron Way, Sparta, New Jersey, 07871",100,-74.6528049812898,41.0841600136292,-74.65380498128981,41.0831600136292,-74.6518049812898,41.0851600136292
"326 High Street, Hope, NJ, 07844",40.9106920011857,-74.9674610397627,"326 High St, Blairstown, New Jersey, 07825",99.49,-74.9674610397627,40.91069200118571,-74.9684610397627,40.90969200118571,-74.96646103976269,40.911692001185706
"200 N Wildwood Rd, Cape May Court House, NJ, 08210-2705",39.0443100939257,-74.8485930021659,"200 N Wildwood Blvd, Cape May Court House, New Jersey, 08210",98.06,-74.84859300216593,39.04431009392573,-74.84959300216593,39.04331009392573,-74.84759300216592,39.04531009392573
"20-10 maple ave, FAIR LAWN, NJ, 07410",40.9438192100383,-74.1405457634097,"20-10 Maple Ave, Fair Lawn, New Jersey, 07410",100,-74.14054576340968,40.94381921003834,-74.14154576340968,40.942819210038344,-74.13954576340967,40.94481921003834
"117 HIGHWAY 35, KEYPORT, NJ, 07735",40.4241920078286,-74.1985609821037,"117 State Route 35, Keyport, New Jersey, 07735",100,-74.19856098210371,40.424192007828594,-74.19956098210372,40.4231920078286,-74.19756098210371,40.42519200782859
"552-572 Morris Ave, Elizabeth, NJ, 07208-1765",40.6737480036327,-74.224670023762,"552 Morris Ave, Elizabeth, New Jersey, 07208",99.14,-74.224670023762,40.67374800363265,-74.225670023762,40.672748003632655,-74.223670023762,40.67474800363265
"485E US HIGHWAY 1 S STE 240, ISELIN, NJ, 08830-3005",40.5546491728568,-74.3136670154445,"485E US Highway 1 S, Iselin, New Jersey, 08830",100,-74.31366701544451,40.55464917285675,-74.31466701544451,40.55364917285676,-74.3126670154445,40.555649172856754
"424 Harding Hwy, ELMER, NJ, 08318",39.5990722934,-75.1585626078433,"424 Harding Hwy, Elmer, New Jersey, 08318",100,-75.15856260784328,39.59907229340004,-75.15956260784328,39.59807229340005,-75.15756260784327,39.60007229340004
"60 Springfield Avenue, Springfield, NJ, 07081",40.7116520495561,-74.3055986707586,"60 Springfield Ave, Springfield, New Jersey, 07081",100,-74.3055986707586,40.71165204955605,-74.3065986707586,40.71065204955605,-74.3045986707586,40.71265204955605
"330 East Commerce Street #236, Bridgeton, NJ, 08302-2615",39.4269669798328,-75.2245210182036,"330 E Commerce St, Ste 236, Bridgeton, New Jersey, 08302",100,-75.22452101820359,39.42696697983283,-75.2255210182036,39.42596697983283,-75.22352101820358,39.427966979832824
"4-34 2ND ST, FAIR LAWN, NJ, 07410-1030",40.9234930113533,-74.1332719913373,"4-34 2nd St, Fair Lawn, New Jersey, 07410",100,-74.13327199133731,40.923493011353315,-74.13427199133731,40.92249301135332,-74.1322719913373,40.92449301135331
"530 Route 206 South, NEWTON, NJ, 07860",41.0149930096301,-74.7677399845644,"530 US Highway 206 S, Newton, New Jersey, 07860",100,-74.76773998456436,41.01499300963013,-74.76873998456436,41.013993009630134,-74.76673998456435,41.01599300963013
"330 E. cmmerce st, Bridgeton, NJ, 08302",39.4269669798328,-75.2245210182036,"330 E Commerce St, Bridgeton, New Jersey, 08302",97.37,-75.22452101820359,39.42696697983283,-75.2255210182036,39.42596697983283,-75.22352101820358,39.427966979832824
"418 Route 9 South, LITTLE EGG HARBOR TWP, NJ, 08087",39.6015683026775,-74.354458058021,"418 Route 9 S, Tuckerton, New Jersey, 08087",100,-74.354458058021,39.60156830267753,-74.355458058021,39.60056830267753,-74.35345805802099,39.602568302677525
"2637 Main St, Lawrenceville, NJ, 08648-1012",40.2969999799025,-74.7308949822238,"2637 Main St, Lawrence Township, New Jersey, 08648",100,-74.73089498222382,40.29699997990252,-74.73189498222382,40.295999979902525,-74.72989498222381,40.29799997990252
"15-01 Broadway Ste 10B, Fair Lawn, NJ, 07410-2001",40.9211330026952,-74.1185060116083,"15-01 Broadway, Ste 10B, Fair Lawn, New Jersey, 07410",100,-74.11850601160829,40.92113300269523,-74.1195060116083,40.92013300269523,-74.11750601160828,40.922133002695226
"15-01 Broadway Suit 10-B, Fairlawn, NJ, 07410",40.9211830007477,-74.118793007973,"15-01 Broadway, #10, Fair Lawn, New Jersey, 07410",100,-74.11879300797303,40.921183000747675,-74.11979300797303,40.92018300074768,-74.11779300797302,40.92218300074767
"268 Green Village Road downstairs, Chatham, NJ, 07928",40.7461310181516,-74.4331049893206,"268 Green Village Rd, Green Village, New Jersey, 07935",94.87,-74.43310498932055,40.7461310181516,-74.43410498932056,40.745131018151604,-74.43210498932055,40.7471310181516
"716 NEWMAN SPRINGS ROAD, HOLMDEL, NJ, 07733",40.3309220557215,-74.1228573681067,"716 Newman Springs Rd, Lincroft, New Jersey, 07738",97.13,-74.12285736810668,40.33092205572147,-74.12385736810668,40.329922055721475,-74.12185736810667,40.33192205572147
"3 DRIFTWAY, FLORHAM PARK, NJ, 07932",40.7784559953857,-74.3735349710907,"3 Drift Way, Florham Park, New Jersey, 07932",99.5,-74.37353497109075,40.77845599538574,-74.37453497109075,40.77745599538574,-74.37253497109074,40.77945599538574
"800 BLOOMFIELD AVE, WEST CALDWELL, NJ, 07006-6700",40.8501659321429,-74.2954122844945,"800 Bloomfield Ave, Caldwell, New Jersey, 07006",99.9,-74.29541228449452,40.85016593214294,-74.29641228449452,40.849165932142945,-74.29441228449451,40.85116593214294
"317 1ST ST, DUNELLEN, NJ, 08812-1111",40.5937953160292,-74.4661423447686,"317 1st St, Dunellen, New Jersey, 08812",100,-74.46614234476856,40.5937953160292,-74.46714234476856,40.5927953160292,-74.46514234476855,40.5947953160292
"317 1st St, Dunellen, NJ, 08812-1111",40.5937953160292,-74.4661423447686,"317 1st St, Dunellen, New Jersey, 08812",100,-74.46614234476856,40.5937953160292,-74.46714234476856,40.5927953160292,-74.46514234476855,40.5947953160292
"820 US Hwy 202 North, Neshanic Station, NJ, 08853",40.5354341460217,-74.771179989809,"820 US-202 N, Neshanic Station, New Jersey, 08853",100,-74.77117998980901,40.53543414602173,-74.77217998980902,40.53443414602173,-74.77017998980901,40.536434146021726
"417 south laurel avenue, hazlet, NJ, 07730",40.4365180155432,-74.1416659644533,"417 S Laurel Ave, Keansburg, New Jersey, 07734",99.5,-74.14166596445332,40.43651801554324,-74.14266596445333,40.435518015543245,-74.14066596445332,40.43751801554324
"703 Cross St, Lakewood, NJ, 08701-4029",40.0712762241831,-74.2449288446831,"703 Cross St, Lakewood, New Jersey, 08701",100,-74.24492884468312,40.07127622418307,-74.24592884468312,40.070276224183075,-74.24392884468311,40.07227622418307
"703 Cross Street, Lakewood, NJ, 08701",40.0712762241831,-74.2449288446831,"703 Cross St, Lakewood, New Jersey, 08701",100,-74.24492884468312,40.07127622418307,-74.24592884468312,40.070276224183075,-74.24392884468311,40.07227622418307
"697 Mill Creek Rd, Manahawkin, NJ, 08050",39.6813037547075,-74.238312896497,"697 Mill Creek Rd, Manahawkin, New Jersey, 08050",100,-74.238312896497,39.68130375470745,-74.23931289649701,39.68030375470745,-74.237312896497,39.68230375470745
"630 MAIN STREET SUITE C, SOUTH AMBOY, NJ, 08879",40.4779487813265,-74.2907351392688,"630 Main St, South Amboy, New Jersey, 08879",98.9,-74.29073513926883,40.47794878132653,-74.29173513926884,40.476948781326534,-74.28973513926883,40.47894878132653
"2024 Corlies Ave, Neptune, NJ, 07753",40.207217044177,-74.0422353870191,"2024 Corlies Ave, Neptune, New Jersey, 07753",100,-74.04223538701909,40.20721704417701,-74.0432353870191,40.20621704417701,-74.04123538701909,40.208217044177005
"60 Springfield Ave, Springfield, NJ, 07081-1304",40.7116520495561,-74.3055986707586,"60 Springfield Ave, Springfield, New Jersey, 07081",100,-74.3055986707586,40.71165204955605,-74.3065986707586,40.71065204955605,-74.3045986707586,40.71265204955605
"612 Boulevard, Seaside Hgts, NJ, 08751-2108",39.9414198820353,-74.0736270842196,"612 Boulevard, Seaside Heights, New Jersey, 08751",100,-74.07362708421958,39.941419882035326,-74.07462708421959,39.94041988203533,-74.07262708421958,39.94241988203533
"74 Sparta Ave, Newton, NJ, 07860-2416",41.0489810429228,-74.7477438014836,"74 Sparta Ave, Newton, New Jersey, 07860",100,-74.74774380148361,41.0489810429228,-74.74874380148361,41.0479810429228,-74.7467438014836,41.049981042922795
"74 Sparta Ave, NEWTON, NJ, 07860",41.0489810429228,-74.7477438014836,"74 Sparta Ave, Newton, New Jersey, 07860",100,-74.74774380148361,41.0489810429228,-74.74874380148361,41.0479810429228,-74.7467438014836,41.049981042922795
"190 US HIGHWAY 206 S, CHESTER, NJ, 07930-2400",40.7805415322708,-74.6980086055748,"190 US Highway 206 S, Chester, New Jersey, 07930",100,-74.69800860557484,40.78054153227077,-74.69900860557485,40.77954153227077,-74.69700860557484,40.781541532270765
"700 Grand Ave Ste 1, Ridgefield, NJ, 07657-1500",40.8394759990459,-74.0071240132708,"700 Grand Ave, Ste 1, Ridgefield, New Jersey, 07657",100,-74.00712401327077,40.839475999045874,-74.00812401327077,40.83847599904587,-74.00612401327076,40.84047599904587
"22-15 BROADWAY, FAIR LAWN, NJ, 07410",40.9225148773037,-74.1128388152935,"22-15 Broadway, Fair Lawn, New Jersey, 07410",100,-74.11283881529347,40.92251487730371,-74.11383881529348,40.921514877303714,-74.11183881529347,40.92351487730371
"2032 MORRIS VENUE, UNION, NJ, 07083",40.6965989995266,-74.2715129602102,"2032 Morris Ave, Union, New Jersey, 07083",91.5,-74.27151296021022,40.69659899952663,-74.27251296021022,40.69559899952663,-74.27051296021021,40.697598999526626
"700 Grand Ave Ste 18, Ridgefield, NJ, 07657-1500",40.8394759990459,-74.0071240132708,"700 Grand Ave, Ste 18, Ridgefield, New Jersey, 07657",100,-74.00712401327077,40.839475999045874,-74.00812401327077,40.83847599904587,-74.00612401327076,40.84047599904587
"904 Kings Hwy, Haddon Heights, NJ, 08035-1218",39.8839448387903,-75.0673096000558,"904 Kings Hwy, Haddon Heights, New Jersey, 08035",100,-75.06730960005578,39.88394483879033,-75.06830960005578,39.88294483879033,-75.06630960005577,39.884944838790325
"165 CENTRAL AVE, FARMINGDALE, NJ, 07727-3791",40.1910218917329,-74.1667373950902,"165 Central Ave, Farmingdale, New Jersey, 07727",100,-74.16673739509024,40.19102189173286,-74.16773739509024,40.19002189173286,-74.16573739509023,40.19202189173286
"700 GRAND AVE SUITE 18, RIDGEFIELD, NJ, 07657",40.8394759990459,-74.0071240132708,"700 Grand Ave, Ste 18, Ridgefield, New Jersey, 07657",100,-74.00712401327077,40.839475999045874,-74.00812401327077,40.83847599904587,-74.00612401327076,40.84047599904587
"76 PASSAIC AVE, FLORHAM PARK, NJ, 07932-3053",40.7523932781057,-74.3645241348193,"76 Passaic Ave, Florham Park, New Jersey, 07932",100,-74.36452413481932,40.752393278105714,-74.36552413481932,40.75139327810571,-74.36352413481931,40.75339327810571
"715 rt 47, dennisville, NJ, 08214",39.1668358164854,-74.8254400712049,"715 RT-47, Cape May Court House, New Jersey, 08210",97.07,-74.82544007120494,39.16683581648539,-74.82644007120494,39.16583581648539,-74.82444007120493,39.167835816485386
"165 Central Ave, Farmingdale, NJ, 07727-3791",40.1910218917329,-74.1667373950902,"165 Central Ave, Farmingdale, New Jersey, 07727",100,-74.16673739509024,40.19102189173286,-74.16773739509024,40.19002189173286,-74.16573739509023,40.19202189173286
"15-01 Broadway Ste 38, Fair Lawn, NJ, 07410-6026",40.9211410074128,-74.1186289741279,"15-01 Broadway, Ste 38, Fair Lawn, New Jersey, 07410",100,-74.11862897412787,40.92114100741276,-74.11962897412788,40.92014100741276,-74.11762897412787,40.922141007412755
"219 NEWMAN SPRINGS RD, SHREWSBURY, NJ, 07702-4032",40.3373049219191,-74.0739973525648,"219 Newman Springs Rd E, Shrewsbury, New Jersey, 07702",99.55,-74.07399735256485,40.33730492191906,-74.07499735256485,40.336304921919066,-74.07299735256484,40.33830492191906
"697 Mill Creek Rd Ste 10-12, Manahawkin, NJ, 08050-3361",39.6813037547075,-74.238312896497,"697 Mill Creek Rd, Manahawkin, New Jersey, 08050",100,-74.238312896497,39.68130375470745,-74.23931289649701,39.68030375470745,-74.237312896497,39.68230375470745
"20-10 Maple Ave Bldg 35D, Fair Lawn, NJ, 07410-1591",40.9438192100383,-74.1405457634097,"20-10 Maple Ave, Fair Lawn, New Jersey, 07410",100,-74.14054576340968,40.94381921003834,-74.14154576340968,40.942819210038344,-74.13954576340967,40.94481921003834
"440 Ridge Road, North Arlington, NJ, 07031",40.7942860158134,-74.1286089709627,"440 Ridge Rd, North Arlington, New Jersey, 07031",100,-74.12860897096274,40.794286015813384,-74.12960897096275,40.793286015813386,-74.12760897096274,40.79528601581338
"89 US Hwy 46 W, Elmwood Park, NJ, 07407",40.8933920522996,-74.1221773009856,"89 US-46 W, Elmwood Park, New Jersey, 07407",100,-74.12217730098557,40.89339205229958,-74.12317730098557,40.892392052299584,-74.12117730098556,40.89439205229958
"1217 23 Van Houten Ave, Clifton, NJ, 07013",40.844361467483,-74.1237262331346,"23 Van Houten Ave, Passaic, New Jersey, 07055",95.91,-74.12372623313456,40.84436146748299,-74.12472623313457,40.84336146748299,-74.12272623313456,40.84536146748299
"700 GRAND AVE STE 8, RIDGEFIELD, NJ, 07657",40.8394759990459,-74.0071240132708,"700 Grand Ave, Ste 8, Ridgefield, New Jersey, 07657",100,-74.00712401327077,40.839475999045874,-74.00812401327077,40.83847599904587,-74.00612401327076,40.84047599904587
"90 PARK AVE Suite 161, FLORHAM PARK, NJ, 07932-1058",40.7775359976932,-74.4218109615249,"90 Park Ave, Ste 161, Florham Park, New Jersey, 07932",100,-74.42181096152487,40.77753599769321,-74.42281096152487,40.77653599769321,-74.42081096152486,40.7785359976932
"1521 Pennington Rd, Ewing, NJ, 08618-1301",40.2508406257085,-74.7762268289498,"1521 Pennington Rd, Trenton, New Jersey, 08618",99.9,-74.77622682894983,40.25084062570849,-74.77722682894984,40.249840625708494,-74.77522682894983,40.25184062570849
"3200 KENNEDY BLVD, UNION CITY, NJ, 07087",40.7748949857312,-74.0313819954318,"3200 Kennedy Blvd, Union City, New Jersey, 07087",100,-74.03138199543179,40.77489498573118,-74.03238199543179,40.77389498573118,-74.03038199543178,40.77589498573118
"15-16 Willow Street, FAIR LAWN, NJ, 07410",40.9250590023236,-74.1203969689647,"15-16 Willow St, Fair Lawn, New Jersey, 07410",100,-74.12039696896467,40.925059002323565,-74.12139696896467,40.92405900232357,-74.119396968964665,40.92605900232356
"697 Mill Creek Rd Suite 10-12, Manahawkin, NJ, 08050",39.6813037547075,-74.238312896497,"697 Mill Creek Rd, Manahawkin, New Jersey, 08050",100,-74.238312896497,39.68130375470745,-74.23931289649701,39.68030375470745,-74.237312896497,39.68230375470745
"3 Paterson Street, Harrison, NJ, 07029",40.7471328469233,-74.1526150029689,"3 Patterson St, Harrison, New Jersey, 07029",97.88,-74.15261500296887,40.74713284692333,-74.15361500296888,40.74613284692333,-74.15161500296887,40.748132846923326
"353 Bloomfield Ave, CALDWELL, NJ, 07006-5118",40.8405306705863,-74.2771424495841,"353 Bloomfield Ave, Caldwell, New Jersey, 07006",100,-74.27714244958413,40.84053067058631,-74.27814244958414,40.83953067058631,-74.27614244958413,40.84153067058631
"15-01 BROADWAY SUITE 10E, FAIR LAWN, NJ, 07410-2001",40.9212350104569,-74.1185510224283,"15-01 Broadway, Ste 10E, Fair Lawn, New Jersey, 07410",100,-74.11855102242835,40.92123501045688,-74.11955102242835,40.920235010456885,-74.11755102242834,40.92223501045688
"115 TOWN SQUARE PL, JERSEY CITY, NJ, 07310-1756",40.7264760000289,-74.0338659724378,"115 Town Square Pl, Jersey City, New Jersey, 07310",100,-74.03386597243784,40.726476000028896,-74.03486597243784,40.7254760000289,-74.03286597243783,40.727476000028894
"115 Town Square Pl, Jersey City, NJ, 07310-1756",40.7264760000289,-74.0338659724378,"115 Town Square Pl, Jersey City, New Jersey, 07310",100,-74.03386597243784,40.726476000028896,-74.03486597243784,40.7254760000289,-74.03286597243783,40.727476000028894
"135 BUCKINGHAM RD, TEANECK, NJ, 07666",40.9132717409574,-74.0181287968775,"Buckingham Rd, Teaneck, New Jersey, 07666",96.38,-74.01812879687753,40.91327174095738,-74.01912879687754,40.91227174095738,-74.01712879687753,40.914271740957375
"20-10 Maple Ave. Bldg 350, FAIR LAWN, NJ, 07410",40.9438192100383,-74.1405457634097,"20-10 Maple Ave, Fair Lawn, New Jersey, 07410",100,-74.14054576340968,40.94381921003834,-74.14154576340968,40.942819210038344,-74.13954576340967,40.94481921003834
"8 HOOK RD, BAYONNE, NJ, 07002",40.6512169868924,-74.0993049992711,"8 Hook Rd, Bayonne, New Jersey, 07002",100,-74.09930499927108,40.65121698689239,-74.10030499927109,40.6502169868924,-74.09830499927108,40.65221698689239
"1360 SAINT GEORGES AVE, AVENEL, NJ, 07001-1158",40.5851260156302,-74.2920099824164,"1360 Saint Georges Ave, Avenel, New Jersey, 07001",100,-74.29200998241642,40.58512601563015,-74.29300998241642,40.584126015630154,-74.29100998241641,40.58612601563015
"404 S BURNT MILL ROAD, VOORHEES, NJ, 08034",39.8499199933605,-75.0071470043655,"404 S Burnt Mill Rd, Voorhees, New Jersey, 08043",98.44,-75.00714700436552,39.84991999336049,-75.00814700436553,39.84891999336049,-75.00614700436552,39.850919993360485
"329 Route 46 East, Denville, NJ, 07834",40.8872021593959,-74.4651642717507,"329 US-46 E, Denville, New Jersey, 07834",100,-74.46516427175068,40.88720215939587,-74.46616427175069,40.88620215939588,-74.46416427175068,40.888202159395874
"330 East Commerce St St 137, Bridgeton, NJ, 08302",39.4269669798328,-75.2245210182036,"330 E Commerce St, Bridgeton, New Jersey, 08302",98.68,-75.22452101820359,39.42696697983283,-75.2255210182036,39.42596697983283,-75.22352101820358,39.427966979832824
"1A Railroad Avenue, Wrightstown, NJ, 08562",40.0346253941643,-74.6173366765763,"Railroad Ave, Joint Base Mdl, New Jersey, 08640",97.28,-74.6173366765763,40.03462539416433,-74.6183366765763,40.03362539416433,-74.6163366765763,40.03562539416433
"1A Railroad Ave, Wrightstown, NJ, 08562-2356",40.0346253941643,-74.6173366765763,"Railroad Ave, Joint Base Mdl, New Jersey, 08640",97.33,-74.6173366765763,40.03462539416433,-74.6183366765763,40.03362539416433,-74.6163366765763,40.03562539416433
"695 Cross Street, Lakewood, NJ, 08701",40.0705100177184,-74.2429200253649,"695 Cross St, Lakewood, New Jersey, 08701",100,-74.24292002536492,40.07051001771842,-74.24392002536493,40.06951001771842,-74.24192002536492,40.07151001771842
"977 US Highway 202 N, Branchburg, NJ, 08876-3734",40.5660169946803,-74.6871009630557,"977 US Highway 202 N, Somerville, New Jersey, 08876",100,-74.68710096305567,40.5660169946803,-74.68810096305567,40.5650169946803,-74.68610096305567,40.567016994680294
"114 RIDGEDALE AVE, MORRISTOWN, NJ, 07960-4244",40.8027939918772,-74.4650848976179,"114 Ridgedale Ave, Morristown, New Jersey, 07960",100,-74.46508489761787,40.802793991877195,-74.46608489761788,40.8017939918772,-74.46408489761787,40.80379399187719
"849-857 EAST JERSEY ST, ELIZABETH, NJ, 07208",40.6612940042565,-74.2022529589954,"857 E Jersey St, Elizabeth, New Jersey, 07201",98.64,-74.2022529589954,40.66129400425652,-74.2032529589954,40.66029400425652,-74.2012529589954,40.66229400425651
"45 - 47 FRANKLIN AVE., RIDGEWOOD, NJ, 07450-3201",40.9813350164245,-74.1186299799563,"45 Franklin Ave, Ridgewood, New Jersey, 07450",99.43,-74.11862997995625,40.98133501642445,-74.11962997995626,40.980335016424455,-74.11762997995625,40.98233501642445
"15 01 BROADWAY suite 38, FAIR LAWN, NJ, 07410-6026",40.9211410074128,-74.1186289741279,"15-01 Broadway, Ste 38, Fair Lawn, New Jersey, 07410",100,-74.11862897412787,40.92114100741276,-74.11962897412788,40.92014100741276,-74.11762897412787,40.922141007412755
"163 JACKSONVILLE RD, POMPTON PLAINS, NJ, 07444-1503",40.9522299892047,-74.328466986459,"163 Jacksonville Rd, Lincoln Park, New Jersey, 07035",97.13,-74.32846698645896,40.95222998920465,-74.32946698645897,40.951229989204656,-74.32746698645896,40.95322998920465
"160 CENTRAL AVE, FARMINGDALE, NJ, 07727-3782",40.1911132215063,-74.1666467145823,"160 Central Ave, Farmingdale, New Jersey, 07727",100,-74.16664671458226,40.1911132215063,-74.16764671458226,40.1901132215063,-74.16564671458225,40.1921132215063
"90 PARK AVENUE, FLORHAM PARK, NJ, 07932",40.7775359976932,-74.4218109615249,"90 Park Ave, Florham Park, New Jersey, 07932",100,-74.42181096152487,40.77753599769321,-74.42281096152487,40.77653599769321,-74.42081096152486,40.7785359976932
"80 GODWIN AVENUE, RIDGEWOOD, NJ, 07450",40.9787296696751,-74.123653351834193,"80 Godwin Ave, Ridgewood, New Jersey, 07450",100,-74.12365335183422,40.97872966967511,-74.12465335183423,40.977729669675114,-74.12265335183422,40.97972966967511
"2176 Route 27 1B, Kendall Park, NJ, 08824",40.4555070766007,-74.5139301137112,"2176 RT-27, North Brunswick, New Jersey, 08902",96.44,-74.51393011371124,40.45550707660071,-74.51493011371124,40.45450707660071,-74.51293011371123,40.45650707660071
"54 George Hill rd, Branchville, NJ, 07826-4312",41.1522209835948,-74.7181539864829,"54 George Hill Rd, Branchville, New Jersey, 07826",100,-74.71815398648295,41.15222098359476,-74.71915398648295,41.15122098359476,-74.71715398648294,41.15322098359476
